lat,lng,desc,zip,title,timeStamp,twp,addr,e
40.2978759,-75.5812935,REINDEER CT & DEAD END;  NEW HANOVER; Station 332; 2015-12-10 @ 17:10:52;,19525,EMS: BACK PAINS/INJURY,2015-12-10 17:40:00,NEW HANOVER,REINDEER CT & DEAD END,1
40.2580614,-75.2646799,BRIAR PATH & WHITEMARSH LN;  HATFIELD TOWNSHIP; Station 345; 2015-12-10 @ 17:29:21;,19446,EMS: DIABETIC EMERGENCY,2015-12-10 17:40:00,HATFIELD TOWNSHIP,BRIAR PATH & WHITEMARSH LN,1
40.1211818,-75.3519752,HAWS AVE; NORRISTOWN; 2015-12-10 @ 14:39:21-Station:STA27;,19401,Fire: GAS-ODOR/LEAK,2015-12-10 17:40:00,NORRISTOWN,HAWS AVE,1
40.1161530,-75.3435130,AIRY ST & SWEDE ST;  NORRISTOWN; Station 308A; 2015-12-10 @ 16:47:36;,19401,EMS: CARDIAC EMERGENCY,2015-12-10 17:40:01,NORRISTOWN,AIRY ST & SWEDE ST,1
40.2514920,-75.6033497,CHERRYWOOD CT & DEAD END;  LOWER POTTSGROVE; Station 329; 2015-12-10 @ 16:56:52;,,EMS: DIZZINESS,2015-12-10 17:40:01,LOWER POTTSGROVE,CHERRYWOOD CT & DEAD END,1
40.2534732,-75.2832450,CANNON AVE & W 9TH ST;  LANSDALE; Station 345; 2015-12-10 @ 15:39:04;,19446,EMS: HEAD INJURY,2015-12-10 17:40:01,LANSDALE,CANNON AVE & W 9TH ST,1
40.1821111,-75.1277951,LAUREL AVE & OAKDALE AVE;  HORSHAM; Station 352; 2015-12-10 @ 16:46:48;,19044,EMS: NAUSEA/VOMITING,2015-12-10 17:40:01,HORSHAM,LAUREL AVE & OAKDALE AVE,1
40.2172859,-75.4051820,COLLEGEVILLE RD & LYWISKI RD;  SKIPPACK; Station 336; 2015-12-10 @ 16:17:05;,19426,EMS: RESPIRATORY EMERGENCY,2015-12-10 17:40:01,SKIPPACK,COLLEGEVILLE RD & LYWISKI RD,1
40.2890267,-75.3995896,MAIN ST & OLD SUMNEYTOWN PIKE;  LOWER SALFORD; Station 344; 2015-12-10 @ 16:51:42;,19438,EMS: SYNCOPAL EPISODE,2015-12-10 17:40:01,LOWER SALFORD,MAIN ST & OLD SUMNEYTOWN PIKE,1
40.1023985,-75.2914577,BLUEROUTE  & RAMP I476 NB TO CHEMICAL RD; PLYMOUTH; 2015-12-10 @ 17:35:41;,19462,Traffic: VEHICLE ACCIDENT -,2015-12-10 17:40:01,PLYMOUTH,BLUEROUTE  & RAMP I476 NB TO CHEMICAL RD,1
40.2319898,-75.2518915,RT202 PKWY & KNAPP RD; MONTGOMERY; 2015-12-10 @ 17:33:50;,,Traffic: VEHICLE ACCIDENT -,2015-12-10 17:40:01,MONTGOMERY,RT202 PKWY & KNAPP RD,1
40.0841613,-75.3083857,BROOK RD & COLWELL LN; PLYMOUTH; 2015-12-10 @ 16:32:10;,19428,Traffic: VEHICLE ACCIDENT -,2015-12-10 17:40:02,PLYMOUTH,BROOK RD & COLWELL LN,1
40.1741312,-75.0984907,BYBERRY AVE & S WARMINSTER RD; UPPER MORELAND; 2015-12-10 @ 17:15:49;,19040,Traffic: VEHICLE ACCIDENT -,2015-12-10 17:40:02,UPPER MORELAND,BYBERRY AVE & S WARMINSTER RD,1
40.0629740,-75.1359140,OLD YORK RD & VALLEY RD; CHELTENHAM; 2015-12-10 @ 17:12:47;,19027,Traffic: VEHICLE ACCIDENT -,2015-12-10 17:40:02,CHELTENHAM,OLD YORK RD & VALLEY RD,1
40.0972222,-75.3761952,SCHUYLKILL EXPY & CROTON RD UNDERPASS; UPPER MERION; 2015-12-10 @ 17:09:49;,,Traffic: VEHICLE ACCIDENT -,2015-12-10 17:40:02,UPPER MERION,SCHUYLKILL EXPY & CROTON RD UNDERPASS,1
40.2237777,-75.2353993,STUMP RD & WITCHWOOD DR; MONTGOMERY; 2015-12-10 @ 17:31:00;,18936,Traffic: VEHICLE ACCIDENT -,2015-12-10 17:40:02,MONTGOMERY,STUMP RD & WITCHWOOD DR,1
40.2432578,-75.2865516,SUSQUEHANNA AVE & W MAIN ST;  LANSDALE; Station 345B; 2015-12-10 @ 17:42:44;,19446,EMS: RESPIRATORY EMERGENCY,2015-12-10 17:46:01,LANSDALE,SUSQUEHANNA AVE & W MAIN ST,1
40.3121807,-75.5742598,CHARLOTTE ST & MILES RD;  NEW HANOVER; Station 332; 2015-12-10 @ 17:41:54;,19525,EMS: DIZZINESS,2015-12-10 17:47:01,NEW HANOVER,CHARLOTTE ST & MILES RD,1
40.1142390,-75.3385080,PENN ST & ARCH ST;  NORRISTOWN; Station 308A; 2015-12-10 @ 17:43:29;,19401,EMS: VEHICLE ACCIDENT,2015-12-10 17:47:01,NORRISTOWN,PENN ST & ARCH ST,1
40.2093369,-75.1352655,COUNTY LINE RD & WILLOW DR; HORSHAM; 2015-12-10 @ 17:45:23;,18974,Traffic: DISABLED VEHICLE -,2015-12-10 17:47:02,HORSHAM,COUNTY LINE RD & WILLOW DR,1
40.1142390,-75.3385080,PENN ST & ARCH ST; NORRISTOWN; 2015-12-10 @ 17:43:45;,19401,Traffic: VEHICLE ACCIDENT -,2015-12-10 17:47:02,NORRISTOWN,PENN ST & ARCH ST,1
40.1179476,-75.2098476,CHURCH RD & REDCOAT DR; WHITEMARSH; 2015-12-10 @ 17:53:22;,19031,Traffic: DISABLED VEHICLE -,2015-12-10 17:57:02,WHITEMARSH,CHURCH RD & REDCOAT DR,1
40.1990064,-75.3000584,LILAC CT & PRIMROSE DR; UPPER GWYNEDD; 2015-12-10 @ 17:59:24-Station:STA80;,19446,Fire: APPLIANCE FIRE,2015-12-10 18:02:01,UPPER GWYNEDD,LILAC CT & PRIMROSE DR,1
40.1433257,-75.4228190,RT422  & PAWLINGS RD OVERPASS; LOWER PROVIDENCE; 2015-12-10 @ 18:00:38;,,Traffic: DISABLED VEHICLE -,2015-12-10 18:02:02,LOWER PROVIDENCE,RT422  & PAWLINGS RD OVERPASS,1
40.1532684,-75.1895576,SUMMIT AVE & RT309 UNDERPASS; UPPER DUBLIN; 2015-12-10 @ 17:58:22;,,Traffic: VEHICLE ACCIDENT -,2015-12-10 18:02:02,UPPER DUBLIN,SUMMIT AVE & RT309 UNDERPASS,1
40.1330371,-75.4084631,SHANNONDELL DR & SHANNONDELL BLVD;  LOWER PROVIDENCE; Station 322A; 2015-12-10 @ 18:02:02;,19403,EMS: GENERAL WEAKNESS,2015-12-10 18:06:25,LOWER PROVIDENCE,SHANNONDELL DR & SHANNONDELL BLVD,1
40.1552833,-75.2642296,PENLLYN BLUE BELL PIKE & VILLAGE CIR;  WHITPAIN; Station 385; 2015-12-10 @ 18:02:38;,19422,EMS: HEAD INJURY,2015-12-10 18:06:25,WHITPAIN,PENLLYN BLUE BELL PIKE & VILLAGE CIR,1
40.0289031,-75.3518224,EDENTON PL & DURHAM DR; DELAWARE COUNTY; 2015-12-10 @ 18:05:19-Station:STA23;,19085,Fire: CARBON MONOXIDE DETECTOR,2015-12-10 18:06:25,DELAWARE COUNTY,EDENTON PL & DURHAM DR,1
40.0972222,-75.3761952,SCHUYLKILL EXPY & WEADLEY RD OVERPASS; UPPER MERION; 2015-12-10 @ 18:05:39;,,Traffic: VEHICLE ACCIDENT -,2015-12-10 18:06:26,UPPER MERION,SCHUYLKILL EXPY & WEADLEY RD OVERPASS,1
40.2093369,-75.1352655,COUNTY LINE RD & WILLOW DR; HORSHAM; 2015-12-10 @ 18:10:40;,18974,Traffic: DISABLED VEHICLE -,2015-12-10 18:11:01,HORSHAM,COUNTY LINE RD & WILLOW DR,1
40.0972222,-75.3761952,SCHUYLKILL EXPY & WEADLEY RD OVERPASS; UPPER MERION; 2015-12-10 @ 18:07:01;,,Traffic: VEHICLE ACCIDENT -,2015-12-10 18:11:01,UPPER MERION,SCHUYLKILL EXPY & WEADLEY RD OVERPASS,1
40.3007360,-75.3319733,CORNWALL TER & LIONS GATE CIR;  FRANCONIA; Station 339; 2015-12-10 @ 18:09:49;,18964,EMS: RESPIRATORY EMERGENCY,2015-12-10 18:12:01,FRANCONIA,CORNWALL TER & LIONS GATE CIR,1
40.1293980,-75.3322134,PINE ST & W ROBERTS ST;  NORRISTOWN; Station 308A; 2015-12-10 @ 18:17:07;,19401,EMS: UNKNOWN MEDICAL EMERGENCY,2015-12-10 18:22:00,NORRISTOWN,PINE ST & W ROBERTS ST,1
40.2978759,-75.5812935, ; NEW HANOVER; 2015-12-10 @ 18:20:28;,19525,Traffic: DISABLED VEHICLE -,2015-12-10 18:22:01,NEW HANOVER,,1
40.0812601,-75.1370254, ; CHELTENHAM; 2015-12-10 @ 18:20:28;,,Traffic: DISABLED VEHICLE -,2015-12-10 18:26:02,CHELTENHAM,,1
40.0993621,-75.1500348,E GLENSIDE AVE & S KESWICK AVE; CHELTENHAM; 2015-12-10 @ 18:21:43;,19038,Traffic: VEHICLE ACCIDENT -,2015-12-10 18:26:02,CHELTENHAM,E GLENSIDE AVE & S KESWICK AVE,1
40.2212266,-75.2887369,MORRIS RD & MUHLENBURG DR; UPPER GWYNEDD; 2015-12-10 @ 18:23:13;,,Traffic: DISABLED VEHICLE -,2015-12-10 18:27:01,UPPER GWYNEDD,MORRIS RD & MUHLENBURG DR,1
40.0738642,-75.3167972,MOOREHEAD AVE & FRONT ST; WEST CONSHOHOCKEN; 2015-12-10 @ 18:20:28;,19428,Traffic: DISABLED VEHICLE -,2015-12-10 18:27:02,WEST CONSHOHOCKEN,MOOREHEAD AVE & FRONT ST,1
40.1617316,-75.1510554,DRESHER RD & WELSH RD; HORSHAM; 2015-12-10 @ 18:23:11;,19044,Traffic: VEHICLE ACCIDENT -,2015-12-10 18:27:02,HORSHAM,DRESHER RD & WELSH RD,1
40.0667184,-75.3071760,CONSHOHOCKEN STATE RD;  WEST CONSHOHOCKEN; Station 313A; 2015-12-10 @ 18:29:54;,,EMS: VEHICLE ACCIDENT,2015-12-10 18:32:02,WEST CONSHOHOCKEN,CONSHOHOCKEN STATE RD,1
40.0655304,-75.3078284,CONSHOHOCKEN STATE RD & MERION HILL LN; WEST CONSHOHOCKEN; 2015-12-10 @ 18:30:41;,19428,Traffic: VEHICLE ACCIDENT -,2015-12-10 18:32:02,WEST CONSHOHOCKEN,CONSHOHOCKEN STATE RD & MERION HILL LN,1
40.1042063,-75.3676652,HAMPTON RD & BELMONT RD; UPPER MERION; 2015-12-10 @ 18:32:25-Station:STA49;,19406,Fire: GAS-ODOR/LEAK,2015-12-10 18:37:01,UPPER MERION,HAMPTON RD & BELMONT RD,1
40.1227798,-75.2672413,SPARANGO LN & MELISSA WAY;  PLYMOUTH; Station 308; 2015-12-10 @ 18:38:18;,19462,EMS: UNRESPONSIVE SUBJECT,2015-12-10 18:42:00,PLYMOUTH,SPARANGO LN & MELISSA WAY,1
40.0910550,-75.3843648,ALLENDALE RD & WILLS BLVD; UPPER MERION; 2015-12-10 @ 18:37:00;,19406,Traffic: VEHICLE ACCIDENT -,2015-12-10 18:42:01,UPPER MERION,ALLENDALE RD & WILLS BLVD,1
40.0249667,-75.2829046,ROSEMONT AVE & DEAD END;  LOWER MERION; Station 313; 2015-12-10 @ 18:43:07;,,EMS: CARDIAC EMERGENCY,2015-12-10 18:47:01,LOWER MERION,ROSEMONT AVE & DEAD END,1
40.1257391,-75.3398220,W WOOD ST & MARKLEY ST; NORRISTOWN; 2015-12-10 @ 18:47:18;,19401,Traffic: VEHICLE ACCIDENT -,2015-12-10 18:51:01,NORRISTOWN,W WOOD ST & MARKLEY ST,1
40.2249227,-75.5280446,LINFIELD TRAPPE RD;  LIMERICK; Station 324A; 2015-12-10 @ 18:50:37;,19468,EMS: VEHICLE ACCIDENT,2015-12-10 18:52:00,LIMERICK,LINFIELD TRAPPE RD,1
40.2249227,-75.5280446,LINFIELD TRAPPE RD; LIMERICK; 2015-12-10 @ 18:50:23-Station:STA51;,19468,Fire: VEHICLE ACCIDENT,2015-12-10 18:52:00,LIMERICK,LINFIELD TRAPPE RD,1
40.2249227,-75.5280446,AUTO PARK BLVD & LINFIELD TRAPPE RD; LIMERICK; 2015-12-10 @ 18:51:34;,19468,Traffic: VEHICLE ACCIDENT -,2015-12-10 18:56:02,LIMERICK,AUTO PARK BLVD & LINFIELD TRAPPE RD,1
40.2309343,-75.5221245,LINFIELD TRAPPE RD & RAMP N LEWIS RD TO RT422 EB; LIMERICK; 2015-12-10 @ 18:51:01;,19468,Traffic: VEHICLE ACCIDENT -,2015-12-10 18:56:02,LIMERICK,LINFIELD TRAPPE RD & RAMP N LEWIS RD TO RT422 EB,1
40.2515230,-75.3295570,DOCK DR & DEAD END;  TOWAMENCIN; Station 345B; 2015-12-10 @ 18:59:50;,,EMS: ALTERED MENTAL STATUS,2015-12-10 19:01:02,TOWAMENCIN,DOCK DR & DEAD END,1
40.1653934,-75.2829046,HARROW LN & DEAD END; WHITPAIN; 2015-12-10 @ 18:56:51-Station:STA33;,,Fire: FIRE ALARM,2015-12-10 19:02:01,WHITPAIN,HARROW LN & DEAD END,1
40.2313745,-75.2797803,CHURCH RD & E HANCOCK ST; LANSDALE; 2015-12-10 @ 19:06:07;,19446,Traffic: VEHICLE ACCIDENT -,2015-12-10 19:11:01,LANSDALE,CHURCH RD & E HANCOCK ST,1
40.3209665,-75.6113493,WILSON AVE & E PHILADELPHIA AVE;  DOUGLASS; Station 332; 2015-12-10 @ 19:07:27;,19525,EMS: CVA/STROKE,2015-12-10 19:12:01,DOUGLASS,WILSON AVE & E PHILADELPHIA AVE,1
40.0512834,-75.2968515,LAFAYETTE RD & CONSHOHOCKEN STATE RD; LOWER MERION; 2015-12-10 @ 19:09:42-Station:STA24;,19010,Fire: FIRE ALARM,2015-12-10 19:12:01,LOWER MERION,LAFAYETTE RD & CONSHOHOCKEN STATE RD,1
40.2432612,-75.2960797,W MT VERNON ST & S MITCHELL AVE; LANSDALE; 2015-12-10 @ 19:08:43;,19446,Traffic: ROAD OBSTRUCTION -,2015-12-10 19:12:01,LANSDALE,W MT VERNON ST & S MITCHELL AVE,1
40.1568468,-75.1019942,YORK RD & RR CROSSING;  UPPER MORELAND; Station 381; 2015-12-10 @ 19:18:31;,,EMS: UNKNOWN MEDICAL EMERGENCY,2015-12-10 19:26:02,UPPER MORELAND,YORK RD & RR CROSSING,1
40.1330371,-75.4084631,SHANNONDELL DR & SHANNONDELL BLVD;  LOWER PROVIDENCE; Station 322A; 2015-12-10 @ 19:12:13;,19403,EMS: CVA/STROKE,2015-12-10 19:26:03,LOWER PROVIDENCE,SHANNONDELL DR & SHANNONDELL BLVD,1
40.0899730,-75.1410849,FERNBROOK AVE & MAPLE AVE;  CHELTENHAM; Station 358A; 2015-12-10 @ 19:15:10;,19095,EMS: SUBJECT IN PAIN,2015-12-10 19:26:03,CHELTENHAM,FERNBROOK AVE & MAPLE AVE,1
40.2470021,-75.6525972,KING ST & N YORK ST;  POTTSTOWN; Station 329; 2015-12-10 @ 19:17:13;,19464,EMS: SUBJECT IN PAIN,2015-12-10 19:26:03,POTTSTOWN,KING ST & N YORK ST,1
40.0818005,-75.2531616,RIDGE PIKE & CHURCH RD; WHITEMARSH; 2015-12-10 @ 19:19:19;,19444,Traffic: DISABLED VEHICLE -,2015-12-10 19:26:04,WHITEMARSH,RIDGE PIKE & CHURCH RD,1
40.0203725,-75.3092584,W MONTGOMERY AVE & PENNSWOOD RD; LOWER MERION; 2015-12-10 @ 19:25:22;,19041,Traffic: DISABLED VEHICLE -,2015-12-10 19:26:04,LOWER MERION,W MONTGOMERY AVE & PENNSWOOD RD,1
40.2306331,-75.2785377,CEDAR ST & E HANCOCK ST; LANSDALE; 2015-12-10 @ 19:06:07;,19446,Traffic: VEHICLE ACCIDENT -,2015-12-10 19:26:05,LANSDALE,CEDAR ST & E HANCOCK ST,1
40.1173446,-75.2111725,FAIRFIELD DR & FARMAR LN;  WHITEMARSH; Station 318; 2015-12-10 @ 19:23:08;,19031,EMS: HEMORRHAGING,2015-12-10 19:27:01,WHITEMARSH,FAIRFIELD DR & FARMAR LN,1
40.2679249,-75.3143823,CLEMENS RD & FORTY FOOT RD;  HATFIELD TOWNSHIP; Station 345; 2015-12-10 @ 19:25:07;,19440,EMS: UNKNOWN MEDICAL EMERGENCY,2015-12-10 19:27:01,HATFIELD TOWNSHIP,CLEMENS RD & FORTY FOOT RD,1
40.2456734,-75.2796667,BROAD ST & E 6TH ST;  LANSDALE; Station 345; 2015-12-10 @ 19:22:25;,19446,EMS: FALL VICTIM,2015-12-10 19:27:02,LANSDALE,BROAD ST & E 6TH ST,1
40.1199455,-75.3383214,DEKALB ST & E ELM ST;  NORRISTOWN; Station 308A; 2015-12-10 @ 19:21:47;,19401,EMS: RESPIRATORY EMERGENCY,2015-12-10 19:27:02,NORRISTOWN,DEKALB ST & E ELM ST,1
40.1053080,-75.3419870,4TH ST & DEPOT ST;  BRIDGEPORT; Station 317; 2015-12-10 @ 19:35:47;,19405,EMS: ASSAULT VICTIM,2015-12-10 19:39:55,BRIDGEPORT,4TH ST & DEPOT ST,1
40.2890267,-75.3995896,MAIN ST & OLD SUMNEYTOWN PIKE;  LOWER SALFORD; Station 344; 2015-12-10 @ 19:38:31;,19438,EMS: FALL VICTIM,2015-12-10 19:42:03,LOWER SALFORD,MAIN ST & OLD SUMNEYTOWN PIKE,1
40.2457310,-75.3416869,TOWAMENCIN AVE & SUMNEYTOWN PIKE;  TOWAMENCIN; Station 345B; 2015-12-10 @ 19:43:24;,19438,EMS: RESPIRATORY EMERGENCY,2015-12-10 19:47:01,TOWAMENCIN,TOWAMENCIN AVE & SUMNEYTOWN PIKE,1
40.1330371,-75.4084631,SHANNONDELL DR & SHANNONDELL BLVD;  LOWER PROVIDENCE; Station 322A; 2015-12-10 @ 19:49:37;,19403,EMS: SUBJECT IN PAIN,2015-12-10 19:52:01,LOWER PROVIDENCE,SHANNONDELL DR & SHANNONDELL BLVD,1
40.1546593,-75.2215435,BUTLER AVE & N RIDGE AVE;  AMBLER; Station 351; 2015-12-10 @ 19:54:45;,19002,EMS: SEIZURES,2015-12-10 19:57:01,AMBLER,BUTLER AVE & N RIDGE AVE,1
40.0249667,-75.2829046,AVIGNON DR & DEAD END; LOWER MERION; 2015-12-10 @ 20:01:29-Station:STA24;,,Fire: GAS-ODOR/LEAK,2015-12-10 20:06:01,LOWER MERION,AVIGNON DR & DEAD END,1
39.9867698,-75.2754335,LLOYD LN & DRAYTON LN;  LOWER MERION; Station 313; 2015-12-10 @ 20:05:27;,19096,EMS: DIABETIC EMERGENCY,2015-12-10 20:07:01,LOWER MERION,LLOYD LN & DRAYTON LN,1
40.2537881,-75.2164375,DELMAR CT & CLAREMONT DR;  MONTGOMERY; Station 345A; 2015-12-10 @ 20:10:27;,19454,EMS: SUBJECT IN PAIN,2015-12-10 20:12:01,MONTGOMERY,DELMAR CT & CLAREMONT DR,1
40.2450058,-75.5930476,HIGH ST & BROWN ST;  LOWER POTTSGROVE; Station 329; 2015-12-10 @ 20:09:47;,19464,EMS: UNKNOWN MEDICAL EMERGENCY,2015-12-10 20:12:01,LOWER POTTSGROVE,HIGH ST & BROWN ST,1
40.2952710,-75.3284004,COWPATH RD & MEADOW WOOD LN;  FRANCONIA; Station 339; 2015-12-10 @ 20:06:36;,18964,EMS: HEAD INJURY,2015-12-10 20:12:02,FRANCONIA,COWPATH RD & MEADOW WOOD LN,1
40.2048367,-75.2228211,WELSH RD & LOWER STATE RD; HORSHAM; 2015-12-10 @ 20:07:25;,19002,Traffic: VEHICLE ACCIDENT -,2015-12-10 20:12:03,HORSHAM,WELSH RD & LOWER STATE RD,1
40.2442013,-75.5824030,HIGH ST & S PARK RD; LOWER POTTSGROVE; 2015-12-10 @ 20:24:17;,19464,Traffic: DISABLED VEHICLE -,2015-12-10 20:27:02,LOWER POTTSGROVE,HIGH ST & S PARK RD,1
40.2315111,-75.6545599,HANOVER ST & E URNER ST;  CHESTER COUNTY; Station 3A84; 2015-12-10 @ 20:26:35;,19465,EMS: FALL VICTIM,2015-12-10 20:31:01,CHESTER COUNTY,HANOVER ST & E URNER ST,1
40.1142023,-75.3268041,NEW HOPE ST & CEDAR LN;  NORRISTOWN; Station 308A; 2015-12-10 @ 20:26:14;,19401,EMS: FALL VICTIM,2015-12-10 20:31:01,NORRISTOWN,NEW HOPE ST & CEDAR LN,1
40.0039548,-75.2207009,BELMONT AVE & E CITY AVE; LOWER MERION; 2015-12-10 @ 20:36:49;,19004,Traffic: VEHICLE ACCIDENT -,2015-12-10 20:41:02,LOWER MERION,BELMONT AVE & E CITY AVE,1
40.2906932,-75.5766612,SWAMP PIKE & ROMIG RD;  NEW HANOVER; Station 332; 2015-12-10 @ 20:45:14;,19525,EMS: SYNCOPAL EPISODE,2015-12-10 20:47:01,NEW HANOVER,SWAMP PIKE & ROMIG RD,1
40.0074347,-75.2489886,MEADOW LN & MONTGOMERY AVE; LOWER MERION; 2015-12-10 @ 20:43:44-Station:STA28;,19066,Fire: CARBON MONOXIDE DETECTOR,2015-12-10 20:47:01,LOWER MERION,MEADOW LN & MONTGOMERY AVE,1
40.2304548,-75.6339815,WORTH BLVD & TYSON ST;  CHESTER COUNTY; Station 3A84; 2015-12-10 @ 20:50:14;,19465,EMS: MEDICAL ALERT ALARM,2015-12-10 20:52:02,CHESTER COUNTY,WORTH BLVD & TYSON ST,1
40.0348666,-75.3276061,MONTGOMERY AVE & THORNBROOK AVE;  LOWER MERION; Station 313; 2015-12-10 @ 20:49:08;,19010,EMS: RESPIRATORY EMERGENCY,2015-12-10 20:52:02,LOWER MERION,MONTGOMERY AVE & THORNBROOK AVE,1
40.0167386,-75.2651596,PENN VALLEY RD & MANOR RD;  LOWER MERION; Station 313; 2015-12-10 @ 20:53:30;,19072,EMS: ABDOMINAL PAINS,2015-12-10 20:57:01,LOWER MERION,PENN VALLEY RD & MANOR RD,1
40.4142488,-75.5090155,BLOMMER DR & GRAVEL PIKE; UPPER HANOVER; 2015-12-10 @ 21:01:26-Station:STA38;,18041,Fire: FIRE ALARM,2015-12-10 21:07:01,UPPER HANOVER,BLOMMER DR & GRAVEL PIKE,1
40.0809133,-75.2026651,STENTON AVE & E EVERGREEN AVE;  SPRINGFIELD; Station 311; 2015-12-10 @ 21:10:36;,19038,EMS: RESPIRATORY EMERGENCY,2015-12-10 21:12:01,SPRINGFIELD,STENTON AVE & E EVERGREEN AVE,1
40.2372576,-75.2204062,HILLSIDE CT & NESHAMINY FALLS CIR;  MONTGOMERY; Station 345A; 2015-12-10 @ 21:12:35;,19454,EMS: UNRESPONSIVE SUBJECT,2015-12-10 21:17:02,MONTGOMERY,HILLSIDE CT & NESHAMINY FALLS CIR,1
40.2500156,-75.5921595,N PLEASANT VIEW RD & WELSH DR; LOWER POTTSGROVE; 2015-12-10 @ 21:19:21;,19464,Traffic: ROAD OBSTRUCTION -,2015-12-10 21:22:00,LOWER POTTSGROVE,N PLEASANT VIEW RD & WELSH DR,1
40.2469315,-75.6439204,CHESTNUT ST & N FRANKLIN ST; POTTSTOWN; 2015-12-10 @ 21:24:47-Station:STA69;,19464,Fire: PUMP DETAIL,2015-12-10 21:27:01,POTTSTOWN,CHESTNUT ST & N FRANKLIN ST,1
40.2302840,-75.3540007,BUSTARD RD & KRIEBEL RD; TOWAMENCIN; 2015-12-10 @ 21:31:19;,19438,Traffic: VEHICLE ACCIDENT -,2015-12-10 21:37:01,TOWAMENCIN,BUSTARD RD & KRIEBEL RD,1
40.0854870,-75.0977084,FOX CHASE RD & LOS ANGELES AVE; ROCKLEDGE; 2015-12-10 @ 21:36:01-Station:STA9;,19046,Fire: FIRE INVESTIGATION,2015-12-10 21:41:00,ROCKLEDGE,FOX CHASE RD & LOS ANGELES AVE,1
40.2344178,-75.3513217,BUSTARD RD & OLD MORRIS RD; TOWAMENCIN; 2015-12-10 @ 21:31:19;,19438,Traffic: VEHICLE ACCIDENT -,2015-12-10 21:47:01,TOWAMENCIN,BUSTARD RD & OLD MORRIS RD,1
40.0830785,-75.1011171,SHELMIRE ST & CEDAR RD; ABINGTON; 2015-12-10 @ 21:47:14;,19027,Traffic: DISABLED VEHICLE -,2015-12-10 21:52:01,ABINGTON,SHELMIRE ST & CEDAR RD,1
40.2763043,-75.5650236,SWAMP PIKE & SANATOGA RD; NEW HANOVER; 2015-12-10 @ 21:56:14;,19525,Traffic: DISABLED VEHICLE -,2015-12-10 22:01:01,NEW HANOVER,SWAMP PIKE & SANATOGA RD,1
40.0953195,-75.1934818,CHELTENHAM AVE & DELPHINE RD; SPRINGFIELD; 2015-12-10 @ 21:58:11;,19038,Traffic: VEHICLE ACCIDENT -,2015-12-10 22:02:01,SPRINGFIELD,CHELTENHAM AVE & DELPHINE RD,1
40.1514759,-75.3966243,MARK LN & IVY CIR;  LOWER PROVIDENCE; Station 322; 2015-12-10 @ 22:03:14;,19403,EMS: CVA/STROKE,2015-12-10 22:07:02,LOWER PROVIDENCE,MARK LN & IVY CIR,1
40.1276110,-75.3799147,HEMLOCK RD & SHIRLEY LN;  WEST NORRITON; Station 308B; 2015-12-10 @ 22:24:21;,19403,EMS: FALL VICTIM,2015-12-10 22:27:01,WEST NORRITON,HEMLOCK RD & SHIRLEY LN,1
40.2844550,-75.5745280,CEDAR LN & WILLOW LN;  NEW HANOVER; Station 332; 2015-12-10 @ 22:22:38;,19525,EMS: SEIZURES,2015-12-10 22:27:02,NEW HANOVER,CEDAR LN & WILLOW LN,1
40.1201276,-75.3501929,GEORGE ST & HAWS ALY;  NORRISTOWN; Station 308A; 2015-12-10 @ 22:29:17;,19401,EMS: CARDIAC EMERGENCY,2015-12-10 22:32:01,NORRISTOWN,GEORGE ST & HAWS ALY,1
40.1508958,-75.1274376,FITZWATERTOWN RD & BARTRAM RD;  UPPER MORELAND; Station 381; 2015-12-10 @ 22:27:24;,19090,EMS: OVERDOSE,2015-12-10 22:32:01,UPPER MORELAND,FITZWATERTOWN RD & BARTRAM RD,1
40.1825726,-75.5406694,ADAMS ST & WALNUT ST; ROYERSFORD; 2015-12-10 @ 22:35:51-Station:STA98;,19468,Fire: FIRE ALARM,2015-12-10 22:37:01,ROYERSFORD,ADAMS ST & WALNUT ST,1
40.0600480,-75.0972170,ASHBOURNE RD & ROWLAND AVE; CHELTENHAM; 2015-12-10 @ 22:41:53;,19012,Traffic: VEHICLE ACCIDENT -,2015-12-10 22:47:02,CHELTENHAM,ASHBOURNE RD & ROWLAND AVE,1
40.2449124,-75.6443631,HIGH ST & S FRANKLIN ST;  POTTSTOWN; Station 329; 2015-12-10 @ 22:54:53;,19464,EMS: FALL VICTIM,2015-12-10 22:56:01,POTTSTOWN,HIGH ST & S FRANKLIN ST,1
40.1388986,-75.1514572,BURN BRAE DR & DUNDEE DR; UPPER DUBLIN; 2015-12-10 @ 22:52:55-Station:STA88;,19025,Fire: GAS-ODOR/LEAK,2015-12-10 22:56:01,UPPER DUBLIN,BURN BRAE DR & DUNDEE DR,1
40.1330371,-75.4084631,SHANNONDELL DR & SHANNONDELL BLVD;  LOWER PROVIDENCE; Station 322A; 2015-12-10 @ 22:55:35;,19403,EMS: ABDOMINAL PAINS,2015-12-10 22:57:01,LOWER PROVIDENCE,SHANNONDELL DR & SHANNONDELL BLVD,1
39.9997391,-75.2557489,HEATH RD & ZOLLINGER WAY; LOWER MERION; 2015-12-10 @ 23:01:58-Station:STA26;,19066,Fire: FIRE ALARM,2015-12-10 23:07:01,LOWER MERION,HEATH RD & ZOLLINGER WAY,1
40.0177675,-75.2300543,BELMONT AVE & OVERHILL RD; LOWER MERION; 2015-12-10 @ 23:02:27;,19004,Traffic: DISABLED VEHICLE -,2015-12-10 23:07:02,LOWER MERION,BELMONT AVE & OVERHILL RD,1
40.2449124,-75.6443631,HIGH ST & S FRANKLIN ST;  POTTSTOWN; Station 329; 2015-12-10 @ 23:10:34;,19464,EMS: SUBJECT IN PAIN,2015-12-10 23:12:00,POTTSTOWN,HIGH ST & S FRANKLIN ST,1
40.0809133,-75.2026651,STENTON AVE & E EVERGREEN AVE;  SPRINGFIELD; Station 311; 2015-12-10 @ 23:06:39;,19038,EMS: RESPIRATORY EMERGENCY,2015-12-10 23:12:01,SPRINGFIELD,STENTON AVE & E EVERGREEN AVE,1
40.0878981,-75.2629699,RIDGE PIKE & OAKWYN RD;  WHITEMARSH; Station 318; 2015-12-10 @ 23:16:10;,19444,EMS: NAUSEA/VOMITING,2015-12-10 23:22:01,WHITEMARSH,RIDGE PIKE & OAKWYN RD,1
40.0975908,-75.2525369,BARBERRY DR & PHEASANT LN;  WHITEMARSH; Station 318; 2015-12-10 @ 23:32:46;,19444,EMS: ABDOMINAL PAINS,2015-12-10 23:37:00,WHITEMARSH,BARBERRY DR & PHEASANT LN,1
40.2451166,-75.6460071,HIGH ST & S EVANS ST; POTTSTOWN; 2015-12-10 @ 23:45:50;,19464,Traffic: DISABLED VEHICLE -,2015-12-10 23:47:02,POTTSTOWN,HIGH ST & S EVANS ST,1
40.1550603,-75.1022513,DAVISVILLE RD & PENNYPACK RD;  UPPER MORELAND; Station 381; 2015-12-10 @ 23:58:13;,19040,EMS: CARDIAC EMERGENCY,2015-12-11 00:02:01,UPPER MORELAND,DAVISVILLE RD & PENNYPACK RD,1
40.0837614,-75.1422046,WASHINGTON LN & W CHURCH RD;  CHELTENHAM; Station 358A; 2015-12-11 @ 00:01:29;,19095,EMS: RESPIRATORY EMERGENCY,2015-12-11 00:06:25,CHELTENHAM,WASHINGTON LN & W CHURCH RD,1
40.1191612,-75.3423774,OAK ST & MAPLE ALY;  NORRISTOWN; Station 308A; 2015-12-11 @ 00:36:02;,19401,EMS: MATERNITY,2015-12-11 00:41:03,NORRISTOWN,OAK ST & MAPLE ALY,1
40.0882040,-75.3266390,RIVER RD & 3RD ST;  UPPER MERION; Station 317; 2015-12-11 @ 00:55:01;,19406,EMS: HEAD INJURY,2015-12-11 00:57:01,UPPER MERION,RIVER RD & 3RD ST,1
40.1663037,-75.4202852,RIDGE PIKE & S GRANGE AVE;  LOWER PROVIDENCE; Station 322; 2015-12-11 @ 01:05:27;,19403,EMS: UNCONSCIOUS SUBJECT,2015-12-11 01:07:01,LOWER PROVIDENCE,RIDGE PIKE & S GRANGE AVE,1
40.2750300,-75.4298706,GRUBB RD & LARSON RD;  UPPER SALFORD; Station 331; 2015-12-11 @ 01:14:20;,19473,EMS: SUBJECT IN PAIN,2015-12-11 01:17:01,UPPER SALFORD,GRUBB RD & LARSON RD,1
40.0972222,-75.3761952, ; UPPER MERION; 2015-12-11 @ 01:15:42;,,Traffic: DISABLED VEHICLE -,2015-12-11 01:17:02,UPPER MERION,,1
40.1507107,-75.0552739,RED LION RD & RR CROSSING; LOWER MORELAND; 2015-12-11 @ 01:15:42;,,Traffic: DISABLED VEHICLE -,2015-12-11 01:24:01,LOWER MORELAND,RED LION RD & RR CROSSING,1
40.0121546,-75.2995188,DREYCOTT LN & W LANCASTER AVE;  LOWER MERION; Station 313; 2015-12-11 @ 01:29:52;,19041,EMS: NAUSEA/VOMITING,2015-12-11 01:32:01,LOWER MERION,DREYCOTT LN & W LANCASTER AVE,1
40.1125844,-75.3297589,AIRY ST & TREMONT AVE;  NORRISTOWN; Station 308A; 2015-12-11 @ 02:00:40;,19401,EMS: HEMORRHAGING,2015-12-11 02:02:01,NORRISTOWN,AIRY ST & TREMONT AVE,1
40.1185944,-75.1626529,PENN AVE & GARFIELD AVE;  ABINGTON; Station 383; 2015-12-11 @ 02:10:29;,19038,EMS: DIZZINESS,2015-12-11 02:12:02,ABINGTON,PENN AVE & GARFIELD AVE,1
40.0824810,-75.3246360,RIVER RD & SWEDELAND RD; UPPER MERION; 2015-12-11 @ 02:26:33-Station:STA48;,19406,Fire: FIRE ALARM,2015-12-11 02:32:02,UPPER MERION,RIVER RD & SWEDELAND RD,1
40.0025642,-75.2236498,CITY AVE & N 47TH ST; LOWER MERION; 2015-12-11 @ 02:34:58;,19004,Traffic: VEHICLE ACCIDENT -,2015-12-11 02:37:01,LOWER MERION,CITY AVE & N 47TH ST,1
40.1255820,-75.3205245,NORTH HILLS DR & JANEWAY DR;  NORRISTOWN; Station 308A; 2015-12-11 @ 03:02:34;,19401,EMS: RESPIRATORY EMERGENCY,2015-12-11 03:07:01,NORRISTOWN,NORTH HILLS DR & JANEWAY DR,1
40.1074003,-75.1132060,THE FAIRWAY  & RYDAL RD;  ABINGTON; Station 382; 2015-12-11 @ 03:09:08;,19046,EMS: RESPIRATORY EMERGENCY,2015-12-11 03:12:02,ABINGTON,THE FAIRWAY  & RYDAL RD,1
40.1830130,-75.5359370,4TH AVE & SPRING ST;  ROYERSFORD; Station 325; 2015-12-11 @ 03:15:36;,19468,EMS: HEMORRHAGING,2015-12-11 03:17:01,ROYERSFORD,4TH AVE & SPRING ST,1
40.2349983,-75.2166077,WOODSTREAM WAY & CHERRYWOOD DR;  MONTGOMERY; Station 345A; 2015-12-11 @ 03:16:28;,19454,EMS: FALL VICTIM,2015-12-11 03:22:02,MONTGOMERY,WOODSTREAM WAY & CHERRYWOOD DR,1
40.0457100,-75.2987280,GREEN VALLEY RD & MT PLEASANT RD; LOWER MERION; 2015-12-11 @ 03:27:07-Station:STA24;,19010,Fire: FIRE ALARM,2015-12-11 03:32:01,LOWER MERION,GREEN VALLEY RD & MT PLEASANT RD,1
40.1148759,-75.3403903,GREEN ST & E AIRY ST;  NORRISTOWN; Station 308A; 2015-12-11 @ 03:50:26;,19401,EMS: CHOKING,2015-12-11 03:52:01,NORRISTOWN,GREEN ST & E AIRY ST,1
40.0802937,-75.3060477,6TH AVE & WOOD ST;  CONSHOHOCKEN; Station 313A; 2015-12-11 @ 03:47:25;,19428,EMS: LACERATIONS,2015-12-11 03:52:01,CONSHOHOCKEN,6TH AVE & WOOD ST,1
40.0794421,-75.3068746,WOOD ST & W 5TH AVE;  CONSHOHOCKEN; Station 313A; 2015-12-11 @ 03:47:25;,19428,EMS: LACERATIONS,2015-12-11 03:57:02,CONSHOHOCKEN,WOOD ST & W 5TH AVE,1
40.2641787,-75.6560050,HARMONY DR & W HARMONY DR;  POTTSTOWN; Station 329; 2015-12-11 @ 03:59:09;,19464,EMS: HEAD INJURY,2015-12-11 04:02:01,POTTSTOWN,HARMONY DR & W HARMONY DR,1
40.1142023,-75.3268041,NEW HOPE ST & CEDAR LN;  NORRISTOWN; Station 308A; 2015-12-11 @ 04:05:26;,19401,EMS: MEDICAL ALERT ALARM,2015-12-11 04:07:00,NORRISTOWN,NEW HOPE ST & CEDAR LN,1
40.0117673,-75.2946732,MONTGOMERY AVE & WOODSIDE RD;  LOWER MERION; Station 313; 2015-12-11 @ 04:11:35;,19041,EMS: HEAD INJURY,2015-12-11 04:17:01,LOWER MERION,MONTGOMERY AVE & WOODSIDE RD,1
40.2905586,-75.2851444,SANDSTONE DR & NORTH PENN RD; HATFIELD TOWNSHIP; 2015-12-11 @ 04:19:56-Station:STA17;,19440,Fire: FIRE ALARM,2015-12-11 04:22:01,HATFIELD TOWNSHIP,SANDSTONE DR & NORTH PENN RD,1
40.1466487,-75.2192771,CHURCH ST & S MAIN ST; AMBLER; 2015-12-11 @ 04:31:00-Station:STA7;,19002,Fire: CARBON MONOXIDE DETECTOR,2015-12-11 04:36:01,AMBLER,CHURCH ST & S MAIN ST,1
40.1355778,-75.2738513,SENTRY PKWY & WALTON RD; WHITPAIN; 2015-12-11 @ 04:38:11-Station:STA33;,19422,Fire: FIRE ALARM,2015-12-11 04:42:01,WHITPAIN,SENTRY PKWY & WALTON RD,1
40.4024419,-75.4994835,MAIN ST & FRONT ST; PENNSBURG; 2015-12-11 @ 04:36:27-Station:STA65;,18073,Fire: TRASH/DUMPSTER FIRE,2015-12-11 04:42:01,PENNSBURG,MAIN ST & FRONT ST,1
40.1653934,-75.2829046,NORTHGATE BLVD & QUAKERTOWN RD; WHITPAIN; 2015-12-11 @ 05:19:35;,,Traffic: VEHICLE ACCIDENT -,2015-12-11 05:22:00,WHITPAIN,NORTHGATE BLVD & QUAKERTOWN RD,1
40.1489915,-75.2605160,SKIPPACK PIKE & WALTON RD; WHITPAIN; 2015-12-11 @ 05:20:59;,19422,Traffic: DISABLED VEHICLE -,2015-12-11 05:27:00,WHITPAIN,SKIPPACK PIKE & WALTON RD,1
40.4014255,-75.4939718,RT663 & QUAKERTOWN AVE; UPPER HANOVER; 2015-12-11 @ 05:19:35;,18073,Traffic: VEHICLE ACCIDENT -,2015-12-11 05:27:00,UPPER HANOVER,RT663 & QUAKERTOWN AVE,1
40.3881677,-75.5059427,RT663; UPPER HANOVER; 2015-12-11 @ 05:27:49-Station:STA65;,18073,Fire: VEHICLE ACCIDENT,2015-12-11 05:31:01,UPPER HANOVER,RT663,1
40.1498641,-75.3646526,EAGLE DR & BURNSIDE AVE; WEST NORRITON; 2015-12-11 @ 05:55:06-Station:STA46;,19403,Fire: FIRE ALARM,2015-12-11 05:57:02,WEST NORRITON,EAGLE DR & BURNSIDE AVE,1
40.1617090,-75.1959681,HONEY RUN RD & JEFFERSON RD;  UPPER DUBLIN; Station 351; 2015-12-11 @ 06:01:00;,19002,EMS: RESPIRATORY EMERGENCY,2015-12-11 06:06:01,UPPER DUBLIN,HONEY RUN RD & JEFFERSON RD,1
40.2552707,-75.3407218,WOODS DR & DETWILER RD;  TOWAMENCIN; Station 345B; 2015-12-11 @ 06:05:42;,19446,EMS: DIZZINESS,2015-12-11 06:07:00,TOWAMENCIN,WOODS DR & DETWILER RD,1
40.3256048,-75.3249254,WASHINGTON AVE & E HAMLIN AVE;  TELFORD; Station 339; 2015-12-11 @ 06:16:36;,18969,EMS: RESPIRATORY EMERGENCY,2015-12-11 06:21:02,TELFORD,WASHINGTON AVE & E HAMLIN AVE,1
40.1488580,-75.2328423,DETWEILER LN & BUTLER PIKE;  WHITEMARSH; Station 318; 2015-12-11 @ 06:19:42;,19002,EMS: MEDICAL ALERT ALARM,2015-12-11 06:22:01,WHITEMARSH,DETWEILER LN & BUTLER PIKE,1
40.1558270,-75.3652085,GERMANTOWN PIKE & BRIDLE PATH RD; EAST NORRITON; 2015-12-11 @ 06:17:56;,19403,Traffic: VEHICLE ACCIDENT -,2015-12-11 06:22:01,EAST NORRITON,GERMANTOWN PIKE & BRIDLE PATH RD,1
40.1290496,-75.3288609,POWELL ST & E LOGAN ST;  NORRISTOWN; Station 308A; 2015-12-11 @ 06:23:57;,19401,EMS: FALL VICTIM,2015-12-11 06:27:00,NORRISTOWN,POWELL ST & E LOGAN ST,1
40.1098472,-75.3937796,BEIDLER RD & SARATOGA RD;  UPPER MERION; Station 317; 2015-12-11 @ 06:27:29;,19406,EMS: GENERAL WEAKNESS,2015-12-11 06:32:02,UPPER MERION,BEIDLER RD & SARATOGA RD,1
40.2763043,-75.5650236,SWAMP PIKE & SANATOGA RD; NEW HANOVER; 2015-12-11 @ 06:34:05;,19525,Traffic: DISABLED VEHICLE -,2015-12-11 06:37:01,NEW HANOVER,SWAMP PIKE & SANATOGA RD,1
40.3055837,-75.4903214,WESTVIEW DR & ASH WAY;  UPPER FREDERICK; Station 344A; 2015-12-11 @ 06:38:39;,18074,EMS: ABDOMINAL PAINS,2015-12-11 06:42:01,UPPER FREDERICK,WESTVIEW DR & ASH WAY,1
40.2919414,-75.5420241,COLONIAL RD & HILDEBEIDEL RD;  UPPER FREDERICK; Station 331; 2015-12-11 @ 06:55:44;,18074,EMS: MEDICAL ALERT ALARM,2015-12-11 06:57:00,UPPER FREDERICK,COLONIAL RD & HILDEBEIDEL RD,1
40.2431339,-75.6464342,SOUTH ST & S EVANS ST; POTTSTOWN; 2015-12-11 @ 07:04:00;,19464,Traffic: VEHICLE ACCIDENT -,2015-12-11 07:07:01,POTTSTOWN,SOUTH ST & S EVANS ST,1
40.0249667,-75.2829046,SCHUYLKILL EXPY & MILL CREEK RD UNDERPASS; LOWER MERION; 2015-12-11 @ 07:09:41;,,Traffic: DISABLED VEHICLE -,2015-12-11 07:11:02,LOWER MERION,SCHUYLKILL EXPY & MILL CREEK RD UNDERPASS,1
40.1330371,-75.4084631,SHANNONDELL DR & SHANNONDELL BLVD;  LOWER PROVIDENCE; Station 322A; 2015-12-11 @ 07:17:26;,19403,EMS: FALL VICTIM,2015-12-11 07:22:01,LOWER PROVIDENCE,SHANNONDELL DR & SHANNONDELL BLVD,1
40.1497607,-75.4785811,EDGEHILL LN & HOLLOW RD; UPPER PROVIDENCE; 2015-12-11 @ 07:23:38;,19460,Traffic: VEHICLE ACCIDENT -,2015-12-11 07:27:02,UPPER PROVIDENCE,EDGEHILL LN & HOLLOW RD,1
40.2469315,-75.6439204,CHESTNUT ST & N FRANKLIN ST; POTTSTOWN; 2015-12-11 @ 07:26:10-Station:STA69;,19464,Fire: GAS-ODOR/LEAK,2015-12-11 07:31:00,POTTSTOWN,CHESTNUT ST & N FRANKLIN ST,1
40.0134468,-75.2361093,E LEVERING MILL RD & CONSHOHOCKEN STATE RD; LOWER MERION; 2015-12-11 @ 07:29:58;,19004,Traffic: VEHICLE ACCIDENT -,2015-12-11 07:32:02,LOWER MERION,E LEVERING MILL RD & CONSHOHOCKEN STATE RD,1
40.0794430,-75.3318330,RENAISSANCE BLVD & SWEDELAND RD; UPPER MERION; 2015-12-11 @ 07:28:48;,19406,Traffic: VEHICLE ACCIDENT -,2015-12-11 07:32:02,UPPER MERION,RENAISSANCE BLVD & SWEDELAND RD,1
40.1074003,-75.1132060,THE FAIRWAY  & RYDAL RD;  ABINGTON; Station 382; 2015-12-11 @ 07:31:07;,19046,EMS: HEMORRHAGING,2015-12-11 07:36:01,ABINGTON,THE FAIRWAY  & RYDAL RD,1
40.1313819,-75.3547959,JAMES ST & FOREST AVE; WEST NORRITON; 2015-12-11 @ 07:42:01;,19401,Traffic: VEHICLE ACCIDENT -,2015-12-11 07:47:01,WEST NORRITON,JAMES ST & FOREST AVE,1
40.1527341,-75.2264827,BUTLER AVE & S CHESTNUT ST;  AMBLER; Station 351; 2015-12-11 @ 07:53:34;,19002,EMS: RESPIRATORY EMERGENCY,2015-12-11 07:57:01,AMBLER,BUTLER AVE & S CHESTNUT ST,1
40.2566279,-75.2612699,LINE ST & COWPATH RD; HATFIELD TOWNSHIP; 2015-12-11 @ 07:58:37-Station:STA12;,19446,Fire: UNKNOWN TYPE FIRE,2015-12-11 08:02:01,HATFIELD TOWNSHIP,LINE ST & COWPATH RD,1
40.1564481,-75.1220797,EASTON RD & ANDREA DR;  UPPER MORELAND; Station 381; 2015-12-11 @ 08:01:43;,19090,EMS: UNRESPONSIVE SUBJECT,2015-12-11 08:07:01,UPPER MORELAND,EASTON RD & ANDREA DR,1
40.1211757,-75.1333613,SUSQUEHANNA RD & EASTON RD; ABINGTON; 2015-12-11 @ 08:04:24;,19001,Traffic: VEHICLE ACCIDENT -,2015-12-11 08:07:01,ABINGTON,SUSQUEHANNA RD & EASTON RD,1
40.1236821,-75.3254952,GLENN VALLEY DR & E ROBERTS ST;  NORRISTOWN; Station 308A; 2015-12-11 @ 08:06:51;,19401,EMS: FALL VICTIM,2015-12-11 08:11:01,NORRISTOWN,GLENN VALLEY DR & E ROBERTS ST,1
40.2414952,-75.2837862,HANCOCK ST & RR CROSSING; LANSDALE; 2015-12-11 @ 08:06:28;,,Traffic: VEHICLE ACCIDENT -,2015-12-11 08:12:01,LANSDALE,HANCOCK ST & RR CROSSING,1
40.3448160,-75.3623206,BARNDT RD & COWPATH RD; SALFORD; 2015-12-11 @ 08:11:35-Station:STA72;,18969,Fire: BUILDING FIRE,2015-12-11 08:16:01,SALFORD,BARNDT RD & COWPATH RD,1
40.0823492,-75.1613157,LIMEKILN PIKE & GREENWOOD AVE; CHELTENHAM; 2015-12-11 @ 08:12:11;,19095,Traffic: VEHICLE ACCIDENT -,2015-12-11 08:16:01,CHELTENHAM,LIMEKILN PIKE & GREENWOOD AVE,1
40.1848404,-75.1205124,CEDAR AVE & COTTAGE AVE; HORSHAM; 2015-12-11 @ 08:11:42;,19044,Traffic: VEHICLE ACCIDENT -,2015-12-11 08:17:01,HORSHAM,CEDAR AVE & COTTAGE AVE,1
40.1295380,-75.3246363,E JOHNSON HWY & DEKALB PIKE; NORRISTOWN; 2015-12-11 @ 08:13:29;,19401,Traffic: VEHICLE ACCIDENT -,2015-12-11 08:17:01,NORRISTOWN,E JOHNSON HWY & DEKALB PIKE,1
40.1198332,-75.1253492,SUSQUEHANNA RD & TYSON AVE OVERPASS; ABINGTON; 2015-12-11 @ 08:04:24;,,Traffic: VEHICLE ACCIDENT -,2015-12-11 08:17:01,ABINGTON,SUSQUEHANNA RD & TYSON AVE OVERPASS,1
40.2290075,-75.3878525,BROAD ST & S WAYNE AVE;  HATFIELD BORO; Station 345; 2015-12-11 @ 08:20:51;,,EMS: GENERAL WEAKNESS,2015-12-11 08:22:00,HATFIELD BORO,BROAD ST & S WAYNE AVE,1
40.0850736,-75.3886248,GULPH RD & W DEKALB PIKE; UPPER MERION; 2015-12-11 @ 08:21:47-Station:STA47;,19406,Fire: ELECTRICAL FIRE OUTSIDE,2015-12-11 08:27:00,UPPER MERION,GULPH RD & W DEKALB PIKE,1
40.0931406,-75.3677644,W DEKALB PIKE & TOWN CENTER RD; UPPER MERION; 2015-12-11 @ 08:26:35;,19406,Traffic: DISABLED VEHICLE -,2015-12-11 08:31:00,UPPER MERION,W DEKALB PIKE & TOWN CENTER RD,1
40.0279994,-75.3122906,NEW GULPH RD & CAVERSHAM RD;  LOWER MERION; Station 313; 2015-12-11 @ 08:29:10;,19010,EMS: SUBJECT IN PAIN,2015-12-11 08:32:01,LOWER MERION,NEW GULPH RD & CAVERSHAM RD,1
40.1086301,-75.1231264,OLD YORK RD & HIDDEN LN; ABINGTON; 2015-12-11 @ 08:26:36;,19001,Traffic: VEHICLE ACCIDENT -,2015-12-11 08:32:01,ABINGTON,OLD YORK RD & HIDDEN LN,1
40.2212266,-75.2887369,SUMNEYTOWN PIKE & RR OVERPASS;  UPPER GWYNEDD; Station 345B; 2015-12-11 @ 08:31:15;,,EMS: SUBJECT IN PAIN,2015-12-11 08:37:01,UPPER GWYNEDD,SUMNEYTOWN PIKE & RR OVERPASS,1
40.2394356,-75.2362381,HORSHAM RD & DOYLESTOWN PIKE; MONTGOMERY; 2015-12-11 @ 08:32:15;,,Traffic: VEHICLE ACCIDENT -,2015-12-11 08:37:01,MONTGOMERY,HORSHAM RD & DOYLESTOWN PIKE,1
40.1330371,-75.4084631,SHANNONDELL DR & SHANNONDELL BLVD;  LOWER PROVIDENCE; Station 322A; 2015-12-11 @ 08:44:20;,19403,EMS: CARDIAC EMERGENCY,2015-12-11 08:47:01,LOWER PROVIDENCE,SHANNONDELL DR & SHANNONDELL BLVD,1
40.2041590,-75.1723943,HORSHAM RD & CAREDEAN DR; HORSHAM; 2015-12-11 @ 08:41:39;,19044,Traffic: VEHICLE ACCIDENT -,2015-12-11 08:47:01,HORSHAM,HORSHAM RD & CAREDEAN DR,1
40.4339309,-75.4680749,COUNTY LINE RD & BAUS RD;  LEHIGH COUNTY; Station 369; 2015-12-11 @ 08:46:05;,18041,EMS: CVA/STROKE,2015-12-11 08:51:00,LEHIGH COUNTY,COUNTY LINE RD & BAUS RD,1
40.2979670,-75.2960191,BERGEY RD & CAMPUS DR; HATFIELD TOWNSHIP; 2015-12-11 @ 08:50:08-Station:STA17;,19440,Fire: FIRE ALARM,2015-12-11 08:52:00,HATFIELD TOWNSHIP,BERGEY RD & CAMPUS DR,1
40.0836572,-75.1647407,GREENWOOD AVE; CHELTENHAM; 2015-12-11 @ 08:47:58-Station:STA1;,19095,Fire: DEBRIS/FLUIDS ON HIGHWAY,2015-12-11 08:52:01,CHELTENHAM,GREENWOOD AVE,1
40.1847975,-75.2868790,TWIN SILO DR & MORRIS RD; WHITPAIN; 2015-12-11 @ 08:46:58-Station:STA33;,19422,Fire: FIRE ALARM,2015-12-11 08:52:01,WHITPAIN,TWIN SILO DR & MORRIS RD,1
40.1545535,-75.2215651,PARK ON ALLENTOWN  ; AMBLER; 2015-12-11 @ 08:50:55;,,Traffic: DISABLED VEHICLE -,2015-12-11 08:52:02,AMBLER,PARK ON ALLENTOWN,1
40.1793752,-75.2362381,RT309 EXPY & NORRISTOWN RD UNDERPASS; LOWER GWYNEDD; 2015-12-11 @ 08:49:07;,,Traffic: DISABLED VEHICLE -,2015-12-11 08:52:02,LOWER GWYNEDD,RT309 EXPY & NORRISTOWN RD UNDERPASS,1
40.1793752,-75.2362381,RT309 EXPY & NORRISTOWN RD UNDERPASS; LOWER GWYNEDD; 2015-12-11 @ 08:50:04;,,Traffic: DISABLED VEHICLE -,2015-12-11 08:52:02,LOWER GWYNEDD,RT309 EXPY & NORRISTOWN RD UNDERPASS,1
40.0923530,-75.1383250,GREENWOOD AVE & E GLENSIDE AVE; CHELTENHAM; 2015-12-11 @ 08:47:35;,19095,Traffic: DEBRIS/FLUIDS ON HIGHWAY -,2015-12-11 08:52:03,CHELTENHAM,GREENWOOD AVE & E GLENSIDE AVE,1
40.0923530,-75.1383250,GREENWOOD AVE & E GLENSIDE AVE; CHELTENHAM; 2015-12-11 @ 08:47:58-Station:STA1;,19095,Fire: DEBRIS/FLUIDS ON HIGHWAY,2015-12-11 08:57:00,CHELTENHAM,GREENWOOD AVE & E GLENSIDE AVE,1
40.1255016,-75.3217964,NORTH HILLS DR & NATALIE LN;  NORRISTOWN; Station 308A; 2015-12-11 @ 08:54:14;,19401,EMS: HEMORRHAGING,2015-12-11 08:57:01,NORRISTOWN,NORTH HILLS DR & NATALIE LN,1
40.3490683,-75.4818301,DOGWOOD DR & GREEN HILL DR;  MARLBOROUGH; Station 344A; 2015-12-11 @ 08:57:50;,18054,EMS: CARDIAC EMERGENCY,2015-12-11 09:02:00,MARLBOROUGH,DOGWOOD DR & GREEN HILL DR,1
40.1899626,-75.5355215,CHURCH ST & N 7TH AVE;  ROYERSFORD; Station 325; 2015-12-11 @ 09:06:33;,19468,EMS: UNRESPONSIVE SUBJECT,2015-12-11 09:12:01,ROYERSFORD,CHURCH ST & N 7TH AVE,1
40.2864378,-75.2637619,BETHLEHEM PIKE & HILLTOWN PIKE; HATFIELD TOWNSHIP; 2015-12-11 @ 09:14:04-Station:STA12;,19440,Fire: GAS-ODOR/LEAK,2015-12-11 09:17:01,HATFIELD TOWNSHIP,BETHLEHEM PIKE & HILLTOWN PIKE,1
40.1335334,-75.0564601,CAMPUS DR & BUCK RD; BRYN ATHYN; 2015-12-11 @ 09:29:49-Station:STA11;,19009,Fire: FIRE ALARM,2015-12-11 09:32:01,BRYN ATHYN,CAMPUS DR & BUCK RD,1
40.1195768,-75.0622361,PHILMONT AVE & ANNE ST; LOWER MORELAND; 2015-12-11 @ 09:32:05-Station:STA8;,19006,Fire: FIRE ALARM,2015-12-11 09:36:01,LOWER MORELAND,PHILMONT AVE & ANNE ST,1
40.0879229,-75.2832089,RED RAMBLER DR & WISTERIA LN;  WHITEMARSH; Station 318; 2015-12-11 @ 09:33:14;,19444,EMS: MEDICAL ALERT ALARM,2015-12-11 09:37:01,WHITEMARSH,RED RAMBLER DR & WISTERIA LN,1
40.1823738,-75.1049136,YORK RD & VILLAGE PL;  HATBORO; Station 384; 2015-12-11 @ 09:38:57;,19040,EMS: SYNCOPAL EPISODE,2015-12-11 09:42:00,HATBORO,YORK RD & VILLAGE PL,1
40.0812601,-75.1370254,LIMEKILN PIKE & RT309 EXPY SB;  CHELTENHAM; Station 358A; 2015-12-11 @ 09:37:59;,,EMS: UNKNOWN MEDICAL EMERGENCY,2015-12-11 09:42:01,CHELTENHAM,LIMEKILN PIKE & RT309 EXPY SB,1
40.2456734,-75.2796667,BROAD ST & E 6TH ST; LANSDALE; 2015-12-11 @ 09:45:42-Station:STA14;,19446,Fire: FIRE ALARM,2015-12-11 09:47:01,LANSDALE,BROAD ST & E 6TH ST,1
40.3858833,-75.4654069,FINLAND RD & GERYVILLE PIKE;  UPPER HANOVER; Station 369; 2015-12-11 @ 09:54:31;,18073,EMS: GENERAL WEAKNESS,2015-12-11 09:57:01,UPPER HANOVER,FINLAND RD & GERYVILLE PIKE,1
40.0902994,-75.1040868,BEVERLY RD & FORREST AVE; ABINGTON; 2015-12-11 @ 09:53:22;,19046,Traffic: VEHICLE ACCIDENT -,2015-12-11 09:57:02,ABINGTON,BEVERLY RD & FORREST AVE,1
40.2309343,-75.5221245,LIGHTCAP RD & SANATOGA SPRINGS DR;  LIMERICK; Station 324A; 2015-12-11 @ 09:58:14;,19468,EMS: SEIZURES,2015-12-11 10:02:00,LIMERICK,LIGHTCAP RD & SANATOGA SPRINGS DR,1
40.0933278,-75.2819813,RIDGE PIKE & MALAN DR; WHITEMARSH; 2015-12-11 @ 10:15:57;,19428,Traffic: VEHICLE ACCIDENT -,2015-12-11 10:17:00,WHITEMARSH,RIDGE PIKE & MALAN DR,1
40.1234522,-75.3508890,OAK ST & BODEY ALY;  NORRISTOWN; Station 308A; 2015-12-11 @ 10:18:38;,19401,EMS: RESPIRATORY EMERGENCY,2015-12-11 10:22:00,NORRISTOWN,OAK ST & BODEY ALY,1
39.9955678,-75.2598013,HONEYSUCKLE LN & STRAWBERRY LN;  LOWER MERION; Station 313; 2015-12-11 @ 10:22:27;,19096,EMS: CARDIAC EMERGENCY,2015-12-11 10:27:00,LOWER MERION,HONEYSUCKLE LN & STRAWBERRY LN,1
40.1385244,-75.5032506,BRIDGE ST;  UPPER PROVIDENCE; Station 3A85; 2015-12-11 @ 10:29:13;,,EMS: VEHICLE ACCIDENT,2015-12-11 10:32:01,UPPER PROVIDENCE,BRIDGE ST,1
40.1258785,-75.0861109,WALLER DR & WELSH RD; LOWER MORELAND; 2015-12-11 @ 10:30:32;,19006,Traffic: ROAD OBSTRUCTION -,2015-12-11 10:32:01,LOWER MORELAND,WALLER DR & WELSH RD,1
40.1723141,-75.4927278,BRIDGE ST & RR OVERPASS; UPPER PROVIDENCE; 2015-12-11 @ 10:33:12;,,Traffic: VEHICLE ACCIDENT -,2015-12-11 10:36:02,UPPER PROVIDENCE,BRIDGE ST & RR OVERPASS,1
40.1033767,-75.4124499,VALLEY FORGE CIR & OLD VALLEY FORGE RD;  UPPER MERION; Station 317; 2015-12-11 @ 10:34:58;,19406,EMS: UNCONSCIOUS SUBJECT,2015-12-11 10:37:01,UPPER MERION,VALLEY FORGE CIR & OLD VALLEY FORGE RD,1
40.1156859,-75.3329667,VIOLET ST & E OAK ST; NORRISTOWN; 2015-12-11 @ 10:32:59-Station:STA27;,19401,Fire: GAS-ODOR/LEAK,2015-12-11 10:37:01,NORRISTOWN,VIOLET ST & E OAK ST,1
40.1385244,-75.5032506,BRIDGE ST; UPPER PROVIDENCE; 2015-12-11 @ 10:37:33-Station:STA99;,,Fire: VEHICLE ACCIDENT,2015-12-11 10:41:02,UPPER PROVIDENCE,BRIDGE ST,1
40.2435820,-75.2817220,BROAD ST & E 4TH ST;  LANSDALE; Station 345; 2015-12-11 @ 10:36:28;,19446,EMS: CVA/STROKE,2015-12-11 10:42:02,LANSDALE,BROAD ST & E 4TH ST,1
40.0360186,-75.2877431,BLACK ROCK RD & ROCK CREEK RD; LOWER MERION; 2015-12-11 @ 10:38:51-Station:STA24;,19035,Fire: FIRE INVESTIGATION,2015-12-11 10:42:02,LOWER MERION,BLACK ROCK RD & ROCK CREEK RD,1
40.1764038,-75.2250294,N BETHLEHEM PIKE & SPRINGWOOD LN; LOWER GWYNEDD; 2015-12-11 @ 10:39:19;,19002,Traffic: VEHICLE ACCIDENT -,2015-12-11 10:42:03,LOWER GWYNEDD,N BETHLEHEM PIKE & SPRINGWOOD LN,1
40.1517793,-75.0415703,WARFIELD DR & BOBWHITE LN; LOWER MORELAND; 2015-12-11 @ 10:45:57;,19006,Traffic: ROAD OBSTRUCTION -,2015-12-11 10:47:01,LOWER MORELAND,WARFIELD DR & BOBWHITE LN,1
40.1801046,-75.3625298,VALLEY FORGE RD & STUMP HALL RD; WORCESTER; 2015-12-11 @ 10:44:35;,19403,Traffic: VEHICLE ACCIDENT -,2015-12-11 10:47:01,WORCESTER,VALLEY FORGE RD & STUMP HALL RD,1
40.1910464,-75.4662767,11TH AVE & SCHOOL ST;  COLLEGEVILLE; Station 324; 2015-12-11 @ 10:46:18;,19426,EMS: FALL VICTIM,2015-12-11 10:51:00,COLLEGEVILLE,11TH AVE & SCHOOL ST,1
40.1198332,-75.1253492,SUSQUEHANNA RD & RR CROSSING; ABINGTON; 2015-12-11 @ 10:47:46;,,Traffic: DISABLED VEHICLE -,2015-12-11 10:52:02,ABINGTON,SUSQUEHANNA RD & RR CROSSING,1
40.2515986,-75.2922951,N VALLEY FORGE RD;  LANSDALE; Station 345; 2015-12-11 @ 10:55:49;,19446,EMS: UNKNOWN MEDICAL EMERGENCY,2015-12-11 10:57:01,LANSDALE,N VALLEY FORGE RD,1
40.1784422,-75.1285061,EASTON RD & WGNAS MAIN GATE; HORSHAM; 2015-12-11 @ 10:48:52;,,Traffic: DISABLED VEHICLE -,2015-12-11 10:57:01,HORSHAM,EASTON RD & WGNAS MAIN GATE,1
40.0727310,-75.1559688,CHELTENHAM AVE & 79TH AVE; CHELTENHAM; 2015-12-11 @ 11:02:30;,19150,Traffic: VEHICLE ACCIDENT -,2015-12-11 11:07:01,CHELTENHAM,CHELTENHAM AVE & 79TH AVE,1
40.2212266,-75.2887369,RT202 PKWY & WELSH RD; UPPER GWYNEDD; 2015-12-11 @ 11:06:30;,,Traffic: DISABLED VEHICLE -,2015-12-11 11:12:00,UPPER GWYNEDD,RT202 PKWY & WELSH RD,1
40.1210265,-75.3581642,MAIN ST & BUTTONWOOD ST;  NORRISTOWN; Station 308A; 2015-12-11 @ 11:20:38;,19401,EMS: SYNCOPAL EPISODE,2015-12-11 11:22:01,NORRISTOWN,MAIN ST & BUTTONWOOD ST,1
40.2682855,-75.6248005,CHARLOTTE ST & SCHOOL RD; LOWER POTTSGROVE; 2015-12-11 @ 11:21:46-Station:STA59;,19464,Fire: FIRE ALARM,2015-12-11 11:26:00,LOWER POTTSGROVE,CHARLOTTE ST & SCHOOL RD,1
40.1194490,-75.1926774,WALNUT AVE & ORELAND MILL RD;  SPRINGFIELD; Station 311; 2015-12-11 @ 11:21:11;,19075,EMS: SYNCOPAL EPISODE,2015-12-11 11:26:01,SPRINGFIELD,WALNUT AVE & ORELAND MILL RD,1
40.1463007,-75.0600812,HUNTINGDON PIKE & CALVIN RD;  LOWER MORELAND; Station 355; 2015-12-11 @ 11:34:58;,19006,EMS: HEMORRHAGING,2015-12-11 11:37:00,LOWER MORELAND,HUNTINGDON PIKE & CALVIN RD,1
40.0249667,-75.2829046,MAPLEHILL RD & DEAD END; LOWER MERION; 2015-12-11 @ 11:31:42-Station:STA24;,,Fire: FIRE ALARM,2015-12-11 11:37:00,LOWER MERION,MAPLEHILL RD & DEAD END,1
40.1589924,-75.4070513,RIDGE PIKE & SUMMIT AVE; LOWER PROVIDENCE; 2015-12-11 @ 11:35:44-Station:STA53;,19403,Fire: FIRE ALARM,2015-12-11 11:37:00,LOWER PROVIDENCE,RIDGE PIKE & SUMMIT AVE,1
40.0961730,-75.1580230,EASTON RD & SPRINGHOUSE LN; CHELTENHAM; 2015-12-11 @ 11:35:17;,19038,Traffic: VEHICLE ACCIDENT -,2015-12-11 11:37:01,CHELTENHAM,EASTON RD & SPRINGHOUSE LN,1
40.3116295,-75.3310962,SUMMIT ST & COLONIAL AVE;  FRANCONIA; Station 339; 2015-12-11 @ 11:37:54;,18964,EMS: RESPIRATORY EMERGENCY,2015-12-11 11:42:01,FRANCONIA,SUMMIT ST & COLONIAL AVE,1
40.1355514,-75.2150436,LAFAYETTE AVE & LAFAYETTE AVE CONNECTOR; WHITEMARSH; 2015-12-11 @ 11:39:06-Station:STA29;,19034,Fire: FIRE ALARM,2015-12-11 11:42:01,WHITEMARSH,LAFAYETTE AVE & LAFAYETTE AVE CONNECTOR,1
40.0916956,-75.2889349,KIRK ST & BUTLER PIKE;  PLYMOUTH; Station 308; 2015-12-11 @ 11:42:54;,19428,EMS: FALL VICTIM,2015-12-11 11:47:00,PLYMOUTH,KIRK ST & BUTLER PIKE,1
40.1685378,-75.4982005,BLACK ROCK RD & S TRAPPE RD;  UPPER PROVIDENCE; Station 325; 2015-12-11 @ 11:51:50;,19468,EMS: FEVER,2015-12-11 11:57:01,UPPER PROVIDENCE,BLACK ROCK RD & S TRAPPE RD,1
40.1795116,-75.2777325,DEKALB PIKE & MORRIS RD; WHITPAIN; 2015-12-11 @ 11:53:55;,19422,Traffic: VEHICLE ACCIDENT -,2015-12-11 11:57:02,WHITPAIN,DEKALB PIKE & MORRIS RD,1
40.2413204,-75.2428276,BETHLEHEM PIKE & NORTH WALES RD; MONTGOMERY; 2015-12-11 @ 11:58:38;,19454,Traffic: ROAD OBSTRUCTION -,2015-12-11 12:02:02,MONTGOMERY,BETHLEHEM PIKE & NORTH WALES RD,1
40.1617387,-75.3797797,GERMANTOWN PIKE & N PARK AVE; WORCESTER; 2015-12-11 @ 12:01:32;,19403,Traffic: VEHICLE ACCIDENT -,2015-12-11 12:06:01,WORCESTER,GERMANTOWN PIKE & N PARK AVE,1
40.1414828,-75.1171420,MORELAND RD & EASTON RD; ABINGTON; 2015-12-11 @ 12:02:22;,19090,Traffic: DISABLED VEHICLE -,2015-12-11 12:07:01,ABINGTON,MORELAND RD & EASTON RD,1
40.0805395,-75.2997124,FAYETTE ST & E 9TH AVE;  CONSHOHOCKEN; Station 313A; 2015-12-11 @ 12:09:09;,19428,EMS: SYNCOPAL EPISODE,2015-12-11 12:12:01,CONSHOHOCKEN,FAYETTE ST & E 9TH AVE,1
40.3097481,-75.3373782,COWPATH RD & W RELIANCE RD;  FRANCONIA; Station 339; 2015-12-11 @ 12:15:05;,18964,EMS: SEIZURES,2015-12-11 12:17:01,FRANCONIA,COWPATH RD & W RELIANCE RD,1
40.0975985,-75.1536376,KESWICK AVE & E WAVERLY RD;  CHELTENHAM; Station 358A; 2015-12-11 @ 12:18:27;,19038,EMS: HEAD INJURY,2015-12-11 12:22:01,CHELTENHAM,KESWICK AVE & E WAVERLY RD,1
40.0978379,-75.1533665,KESWICK AVE & NEW ST;  CHELTENHAM; Station 358A; 2015-12-11 @ 12:18:27;,19038,EMS: HEAD INJURY,2015-12-11 12:27:01,CHELTENHAM,KESWICK AVE & NEW ST,1
40.1617387,-75.3797797,GERMANTOWN PIKE & N PARK AVE; WORCESTER; 2015-12-11 @ 12:31:17;,19403,Traffic: VEHICLE ACCIDENT -,2015-12-11 12:36:02,WORCESTER,GERMANTOWN PIKE & N PARK AVE,1
40.1338404,-75.3316975,JOHNSON HWY & COLES BLVD; NORRISTOWN; 2015-12-11 @ 12:34:36-Station:STA27;,19401,Fire: ELECTRICAL FIRE OUTSIDE,2015-12-11 12:37:00,NORRISTOWN,JOHNSON HWY & COLES BLVD,1
40.1798949,-75.1106756,BROAD ST & W MORELAND AVE;  HATBORO; Station 384; 2015-12-11 @ 12:32:51;,19040,EMS: FALL VICTIM,2015-12-11 12:37:01,HATBORO,BROAD ST & W MORELAND AVE,1
40.1528726,-75.4137214,CHARIOT LN & EAGLE STREAM DR;  LOWER PROVIDENCE; Station 322; 2015-12-11 @ 12:33:41;,19403,EMS: HEMORRHAGING,2015-12-11 12:37:01,LOWER PROVIDENCE,CHARIOT LN & EAGLE STREAM DR,1
40.1550603,-75.1022513,DAVISVILLE RD & PENNYPACK RD;  UPPER MORELAND; Station 381; 2015-12-11 @ 12:31:54;,19040,EMS: UNRESPONSIVE SUBJECT,2015-12-11 12:37:01,UPPER MORELAND,DAVISVILLE RD & PENNYPACK RD,1
40.2466476,-75.6417829,CHESTNUT ST & N WASHINGTON ST;  POTTSTOWN; Station 329; 2015-12-11 @ 12:31:17;,19464,EMS: BACK PAINS/INJURY,2015-12-11 12:37:02,POTTSTOWN,CHESTNUT ST & N WASHINGTON ST,1
40.1617733,-75.3798431,GERMANTOWN PIKE & VALLEY FORGE RD; WORCESTER; 2015-12-11 @ 12:31:17;,19403,Traffic: VEHICLE ACCIDENT -,2015-12-11 12:37:02,WORCESTER,GERMANTOWN PIKE & VALLEY FORGE RD,1
40.2547680,-75.6604586,SHOEMAKER RD & ROBINSON ST;  POTTSTOWN; Station 329; 2015-12-11 @ 12:40:09;,19464,EMS: HEAD INJURY,2015-12-11 12:42:00,POTTSTOWN,SHOEMAKER RD & ROBINSON ST,1
40.1318690,-75.3288610,JOHNSON HWY & PINE ST; NORRISTOWN; 2015-12-11 @ 12:34:36-Station:STA27;,19401,Fire: ELECTRICAL FIRE OUTSIDE,2015-12-11 12:42:00,NORRISTOWN,JOHNSON HWY & PINE ST,1
40.1207169,-75.0748772,WELSH RD;  LOWER MORELAND; Station 355; 2015-12-11 @ 12:42:03;,,EMS: UNKNOWN MEDICAL EMERGENCY,2015-12-11 12:46:02,LOWER MORELAND,WELSH RD,1
40.1068386,-75.1238039,OLD YORK RD & HARTE RD; ABINGTON; 2015-12-11 @ 12:41:54;,19046,Traffic: VEHICLE ACCIDENT -,2015-12-11 12:46:03,ABINGTON,OLD YORK RD & HARTE RD,1
40.1349001,-75.0618234,HUNTINGDON PIKE & CATHEDRAL RD;  BRYN ATHYN; Station 355; 2015-12-11 @ 12:44:32;,19006,EMS: SYNCOPAL EPISODE,2015-12-11 12:47:01,BRYN ATHYN,HUNTINGDON PIKE & CATHEDRAL RD,1
40.1199455,-75.3383214,DEKALB ST & E ELM ST;  NORRISTOWN; Station 308A; 2015-12-11 @ 12:50:16;,19401,EMS: RESPIRATORY EMERGENCY,2015-12-11 12:52:01,NORRISTOWN,DEKALB ST & E ELM ST,1
40.1364590,-75.1271140,PIERCE AVE & RESERVOIR AVE;  ABINGTON; Station 381; 2015-12-11 @ 12:51:24;,19090,EMS: ABDOMINAL PAINS,2015-12-11 12:57:01,ABINGTON,PIERCE AVE & RESERVOIR AVE,1
40.1228913,-75.0641492,HUNTINGDON PIKE & WYNKOOP AVE;  LOWER MORELAND; Station 355; 2015-12-11 @ 12:54:38;,19006,EMS: RESPIRATORY EMERGENCY,2015-12-11 12:57:01,LOWER MORELAND,HUNTINGDON PIKE & WYNKOOP AVE,1
40.1192546,-75.2362381,FLOURTOWN RD & RR OVERPASS; WHITEMARSH; 2015-12-11 @ 12:52:47;,,Traffic: VEHICLE ACCIDENT -,2015-12-11 12:57:02,WHITEMARSH,FLOURTOWN RD & RR OVERPASS,1
40.1017766,-75.2537800,FLOURTOWN RD; WHITEMARSH; 2015-12-11 @ 12:56:53-Station:STA29;,,Fire: VEHICLE ACCIDENT,2015-12-11 13:01:01,WHITEMARSH,FLOURTOWN RD,1
40.4017627,-75.4861776,MORGAN HILL DR & HAYWARD AVE;  UPPER HANOVER; Station 369; 2015-12-11 @ 13:00:38;,18073,EMS: ALLERGIC REACTION,2015-12-11 13:02:01,UPPER HANOVER,MORGAN HILL DR & HAYWARD AVE,1
40.3116295,-75.3310962,SUMMIT ST & COLONIAL AVE;  FRANCONIA; Station 339; 2015-12-11 @ 12:57:49;,18964,EMS: DIZZINESS,2015-12-11 13:02:01,FRANCONIA,SUMMIT ST & COLONIAL AVE,1
40.2468310,-75.2924826,MAIN ST & S MITCHELL AVE;  LANSDALE; Station 345B; 2015-12-11 @ 13:01:10;,19446,EMS: HEAD INJURY,2015-12-11 13:06:00,LANSDALE,MAIN ST & S MITCHELL AVE,1
40.2502049,-75.3129519,WESTHAMPTON WAY & TROXEL RD;  TOWAMENCIN; Station 345B; 2015-12-11 @ 13:01:51;,19446,EMS: MEDICAL ALERT ALARM,2015-12-11 13:06:00,TOWAMENCIN,WESTHAMPTON WAY & TROXEL RD,1
40.1233907,-75.3369417,E WOOD ST & POWELL ST; NORRISTOWN; 2015-12-11 @ 13:01:01;,19401,Traffic: VEHICLE ACCIDENT -,2015-12-11 13:06:01,NORRISTOWN,E WOOD ST & POWELL ST,1
40.1198332,-75.1253492,WYNDMOOR CIR & DEAD END; ABINGTON; 2015-12-11 @ 13:04:21-Station:STA200;,,Fire: FIRE ALARM,2015-12-11 13:07:00,ABINGTON,WYNDMOOR CIR & DEAD END,1
40.1517741,-75.3365695,GERMANTOWN PIKE & RR CROSSING;  EAST NORRITON; Station 308B; 2015-12-11 @ 13:05:12;,,EMS: HEAD INJURY,2015-12-11 13:07:01,EAST NORRITON,GERMANTOWN PIKE & RR CROSSING,1
40.1141098,-75.1814483,GARTH RD & GOLF RD;  SPRINGFIELD; Station 311; 2015-12-11 @ 13:02:34;,19075,EMS: LACERATIONS,2015-12-11 13:07:01,SPRINGFIELD,GARTH RD & GOLF RD,1
40.1500080,-75.3127546,SYCAMORE LN & STONEY CREEK RD;  EAST NORRITON; Station 308; 2015-12-11 @ 13:17:41;,19401,EMS: UNCONSCIOUS SUBJECT,2015-12-11 13:21:00,EAST NORRITON,SYCAMORE LN & STONEY CREEK RD,1
40.1007482,-75.2151078,WISSAHICKON AVE & ROSE LN;  SPRINGFIELD; Station 311; 2015-12-11 @ 13:16:51;,19031,EMS: CVA/STROKE,2015-12-11 13:22:01,SPRINGFIELD,WISSAHICKON AVE & ROSE LN,1
40.0056436,-75.2219357,BELMONT AVE & ST ASAPHS RD;  LOWER MERION; Station 313; 2015-12-11 @ 13:21:15;,19004,EMS: FALL VICTIM,2015-12-11 13:27:01,LOWER MERION,BELMONT AVE & ST ASAPHS RD,1
40.2290259,-75.6374854,KEIM ST & W MEADOWBROOK RD;  CHESTER COUNTY; Station 3A84; 2015-12-11 @ 13:23:38;,19465,EMS: FALL VICTIM,2015-12-11 13:27:01,CHESTER COUNTY,KEIM ST & W MEADOWBROOK RD,1
40.1252484,-75.3361780,FORNANCE ST & LOCUST ST;  NORRISTOWN; Station 308A; 2015-12-11 @ 13:30:33;,19401,EMS: SUBJECT IN PAIN,2015-12-11 13:32:01,NORRISTOWN,FORNANCE ST & LOCUST ST,1
40.0951710,-75.4146990,1ST AVE & FREEDOM DR;  UPPER MERION; Station 317; 2015-12-11 @ 13:26:32;,19406,EMS: HEAD INJURY,2015-12-11 13:32:02,UPPER MERION,1ST AVE & FREEDOM DR,1
39.9975395,-75.2599846,BEDFORD PL & E WYNNEWOOD RD; LOWER MERION; 2015-12-11 @ 13:28:36;,19066,Traffic: VEHICLE ACCIDENT -,2015-12-11 13:32:03,LOWER MERION,BEDFORD PL & E WYNNEWOOD RD,1
40.2118999,-75.4948307,RIDGE PIKE & KLINE RD; UPPER PROVIDENCE; 2015-12-11 @ 13:30:18;,19468,Traffic: VEHICLE ACCIDENT -,2015-12-11 13:32:03,UPPER PROVIDENCE,RIDGE PIKE & KLINE RD,1
40.2451166,-75.6460071,HIGH ST & S EVANS ST;  POTTSTOWN; Station 329; 2015-12-11 @ 13:31:54;,19464,EMS: SUBJECT IN PAIN,2015-12-11 13:37:01,POTTSTOWN,HIGH ST & S EVANS ST,1
40.0781228,-75.0888912,FOX ST;  ROCKLEDGE; Station 382; 2015-12-11 @ 13:32:30;,19046,EMS: UNCONSCIOUS SUBJECT,2015-12-11 13:37:01,ROCKLEDGE,FOX ST,1
40.1660423,-75.0867478,DAVISVILLE RD & BYBERRY RD; UPPER MORELAND; 2015-12-11 @ 13:34:52;,19040,Traffic: VEHICLE ACCIDENT -,2015-12-11 13:37:03,UPPER MORELAND,DAVISVILLE RD & BYBERRY RD,1
40.2513703,-75.4657098,PERKIOMEN AVE & 3RD ST;  SCHWENKSVILLE; Station 331; 2015-12-11 @ 13:48:20;,19473,EMS: HEAD INJURY,2015-12-11 13:52:00,SCHWENKSVILLE,PERKIOMEN AVE & 3RD ST,1
40.1440629,-75.1940993,CORY DR & PINETREE PL;  UPPER DUBLIN; Station 351; 2015-12-11 @ 13:47:50;,19034,EMS: SUBJECT IN PAIN,2015-12-11 13:52:00,UPPER DUBLIN,CORY DR & PINETREE PL,1
40.1196045,-75.2849004,GERMANTOWN PIKE & ATRIUM WAY;  PLYMOUTH; Station 308; 2015-12-11 @ 13:49:01;,19462,EMS: SUBJECT IN PAIN,2015-12-11 13:52:00,PLYMOUTH,GERMANTOWN PIKE & ATRIUM WAY,1
40.2446583,-75.5338868,FRANKLIN CT & MADISON CT;  LIMERICK; Station 324A; 2015-12-11 @ 13:47:21;,19468,EMS: GENERAL WEAKNESS,2015-12-11 13:52:01,LIMERICK,FRANKLIN CT & MADISON CT,1
40.2547680,-75.6604586,SHOEMAKER RD & ROBINSON ST;  POTTSTOWN; Station 329; 2015-12-11 @ 14:00:57;,19464,EMS: UNCONSCIOUS SUBJECT,2015-12-11 14:02:01,POTTSTOWN,SHOEMAKER RD & ROBINSON ST,1
40.2290075,-75.3878525,SCHUYLKILL RD & RAMP RT724 TO RT100 SB; CHESTER COUNTY; 2015-12-11 @ 13:57:14;,,Traffic: VEHICLE LEAKING FUEL -,2015-12-11 14:02:02,CHESTER COUNTY,SCHUYLKILL RD & RAMP RT724 TO RT100 SB,1
40.1003438,-75.2939548,CHEMICAL RD & GALLAGHER RD; PLYMOUTH; 2015-12-11 @ 14:06:20-Station:STA43;,19462,Fire: FIRE ALARM,2015-12-11 14:11:01,PLYMOUTH,CHEMICAL RD & GALLAGHER RD,1
40.2442013,-75.5824030,HIGH ST & S PARK RD;  LOWER POTTSGROVE; Station 329; 2015-12-11 @ 14:10:08;,19464,EMS: MEDICAL ALERT ALARM,2015-12-11 14:12:01,LOWER POTTSGROVE,HIGH ST & S PARK RD,1
40.2025969,-75.4255965,VILLAGE AVE & WISTERIA WAY;  SKIPPACK; Station 336; 2015-12-11 @ 14:14:19;,19426,EMS: RESPIRATORY EMERGENCY,2015-12-11 14:17:01,SKIPPACK,VILLAGE AVE & WISTERIA WAY,1
40.2102834,-75.5699154,CHURCH RD & MAIN ST; LIMERICK; 2015-12-11 @ 14:15:52;,19468,Traffic: VEHICLE ACCIDENT -,2015-12-11 14:17:02,LIMERICK,CHURCH RD & MAIN ST,1
40.0833993,-75.2929707,E 14TH AVE & HALLOWELL ST; WHITEMARSH; 2015-12-11 @ 14:16:26;,19428,Traffic: VEHICLE ACCIDENT -,2015-12-11 14:21:01,WHITEMARSH,E 14TH AVE & HALLOWELL ST,1
40.1050905,-75.3384238,4TH ST & HOLSTEIN ST;  BRIDGEPORT; Station 317; 2015-12-11 @ 14:19:32;,19405,EMS: CARDIAC EMERGENCY,2015-12-11 14:22:00,BRIDGEPORT,4TH ST & HOLSTEIN ST,1
40.2254016,-75.4469886,IRON BRIDGE DR & RAHNS RD;  PERKIOMEN; Station 324; 2015-12-11 @ 14:20:00;,,EMS: CARDIAC EMERGENCY,2015-12-11 14:22:00,PERKIOMEN,IRON BRIDGE DR & RAHNS RD,1
40.1302626,-75.3528617,JAMES ST & SELMA ST; NORRISTOWN; 2015-12-11 @ 14:16:25-Station:STA27;,19401,Fire: BUILDING FIRE,2015-12-11 14:22:00,NORRISTOWN,JAMES ST & SELMA ST,1
40.0813544,-75.2988945,FAYETTE ST & W 10TH AVE; CONSHOHOCKEN; 2015-12-11 @ 14:19:13;,19428,Traffic: ROAD OBSTRUCTION -,2015-12-11 14:22:02,CONSHOHOCKEN,FAYETTE ST & W 10TH AVE,1
40.1938129,-75.2421421,SUMNEYTOWN PIKE & STONEBRIDGE RD;  LOWER GWYNEDD; Station 351; 2015-12-11 @ 14:23:00;,19002,EMS: NAUSEA/VOMITING,2015-12-11 14:27:01,LOWER GWYNEDD,SUMNEYTOWN PIKE & STONEBRIDGE RD,1
40.2456734,-75.2796667,BROAD ST & E 6TH ST;  LANSDALE; Station 345; 2015-12-11 @ 14:28:53;,19446,EMS: FALL VICTIM,2015-12-11 14:32:01,LANSDALE,BROAD ST & E 6TH ST,1
40.0809133,-75.2026651,STENTON AVE & E EVERGREEN AVE;  SPRINGFIELD; Station 311; 2015-12-11 @ 14:35:36;,19038,EMS: CARDIAC EMERGENCY,2015-12-11 14:37:00,SPRINGFIELD,STENTON AVE & E EVERGREEN AVE,1
40.2261232,-75.2178868,SAVORY LN & REGENCY DR;  MONTGOMERY; Station 345A; 2015-12-11 @ 14:32:50;,19454,EMS: CVA/STROKE,2015-12-11 14:37:00,MONTGOMERY,SAVORY LN & REGENCY DR,1
40.0864554,-75.1573831,RICES MILL RD & PANTHER RD; CHELTENHAM; 2015-12-11 @ 14:32:55;,19095,Traffic: DISABLED VEHICLE -,2015-12-11 14:37:01,CHELTENHAM,RICES MILL RD & PANTHER RD,1
40.1224741,-75.3586461,W AIRY ST & HAMILTON ST; NORRISTOWN; 2015-12-11 @ 14:32:51;,19401,Traffic: VEHICLE ACCIDENT -,2015-12-11 14:37:02,NORRISTOWN,W AIRY ST & HAMILTON ST,1
40.1183720,-75.3518780,MAIN ST & GEORGE ST;  NORRISTOWN; Station 308A; 2015-12-11 @ 14:38:19;,19401,EMS: ABDOMINAL PAINS,2015-12-11 14:42:00,NORRISTOWN,MAIN ST & GEORGE ST,1
39.9866944,-75.2569627,CITY AVE & HOLLINGSWORTH RD;  LOWER MERION; Station 313; 2015-12-11 @ 14:42:11;,19151,EMS: SYNCOPAL EPISODE,2015-12-11 14:47:00,LOWER MERION,CITY AVE & HOLLINGSWORTH RD,1
40.1142023,-75.3268041,NEW HOPE ST & CEDAR LN;  NORRISTOWN; Station 308A; 2015-12-11 @ 14:47:51;,19401,EMS: GENERAL WEAKNESS,2015-12-11 14:52:00,NORRISTOWN,NEW HOPE ST & CEDAR LN,1
40.1121357,-75.3209352,PENN RD & FAIRFIELD RD;  PLYMOUTH; Station 308; 2015-12-11 @ 14:46:58;,19462,EMS: RESPIRATORY EMERGENCY,2015-12-11 14:52:00,PLYMOUTH,PENN RD & FAIRFIELD RD,1
40.1847975,-75.2868790,TWIN SILO DR & MORRIS RD;  WHITPAIN; Station 385; 2015-12-11 @ 14:52:41;,19422,EMS: FALL VICTIM,2015-12-11 14:57:00,WHITPAIN,TWIN SILO DR & MORRIS RD,1
40.1087245,-75.1927332,RAMP RT309 SB TO RT73 & CHURCH RD; SPRINGFIELD; 2015-12-11 @ 14:55:05;,,Traffic: DISABLED VEHICLE -,2015-12-11 14:57:01,SPRINGFIELD,RAMP RT309 SB TO RT73 & CHURCH RD,1
40.1198332,-75.1253492,MORELAND RD & RR CROSSING; ABINGTON; 2015-12-11 @ 14:57:02-Station:STA500;,,Fire: FIRE ALARM,2015-12-11 15:02:01,ABINGTON,MORELAND RD & RR CROSSING,1
40.0619215,-75.1176549,COVENTRY AVE & NEW SECOND ST; CHELTENHAM; 2015-12-11 @ 15:00:07;,19027,Traffic: VEHICLE ACCIDENT -,2015-12-11 15:02:02,CHELTENHAM,COVENTRY AVE & NEW SECOND ST,1
40.1305332,-75.4049379,EGYPT RD & WEDGEWOOD WAY;  LOWER PROVIDENCE; Station 322A; 2015-12-11 @ 15:02:20;,19403,EMS: NAUSEA/VOMITING,2015-12-11 15:07:01,LOWER PROVIDENCE,EGYPT RD & WEDGEWOOD WAY,1
40.1130531,-75.1687842,MT CARMEL AVE & STATION AVE; ABINGTON; 2015-12-11 @ 15:05:06-Station:STA400;,19038,Fire: FIRE ALARM,2015-12-11 15:07:01,ABINGTON,MT CARMEL AVE & STATION AVE,1
40.2102834,-75.5699154,MAIN ST & CHURCH RD; LIMERICK; 2015-12-11 @ 15:05:05;,19468,Traffic: VEHICLE ACCIDENT -,2015-12-11 15:07:03,LIMERICK,MAIN ST & CHURCH RD,1
40.1058897,-75.0847407,HUNTINGDON PIKE & MOREDON RD;  ABINGTON; Station 382; 2015-12-11 @ 15:07:45;,19006,EMS: FALL VICTIM,2015-12-11 15:12:01,ABINGTON,HUNTINGDON PIKE & MOREDON RD,1
40.0754210,-75.2882600,HECTOR ST & LEE ST; WHITEMARSH; 2015-12-11 @ 15:08:24-Station:STA45;,19428,Fire: FIRE ALARM,2015-12-11 15:12:01,WHITEMARSH,HECTOR ST & LEE ST,1
40.3120170,-75.3252905,MAIN ST & CENTRAL AVE; SOUDERTON; 2015-12-11 @ 15:09:15-Station:STA74;,18964,Fire: GAS-ODOR/LEAK,2015-12-11 15:12:01,SOUDERTON,MAIN ST & CENTRAL AVE,1
40.1025302,-75.2129155,BETHLEHEM PIKE & E WISSAHICKON AVE; SPRINGFIELD; 2015-12-11 @ 15:12:51-Station:STA6;,19031,Fire: FIRE ALARM,2015-12-11 15:17:01,SPRINGFIELD,BETHLEHEM PIKE & E WISSAHICKON AVE,1
40.1234655,-75.0432767,PHILMONT AVE & TOMLINSON RD; LOWER MORELAND; 2015-12-11 @ 15:20:29;,19006,Traffic: VEHICLE ACCIDENT -,2015-12-11 15:22:01,LOWER MORELAND,PHILMONT AVE & TOMLINSON RD,1
40.3120170,-75.3252905,MAIN ST & CENTRAL AVE;  SOUDERTON; Station 339; 2015-12-11 @ 15:26:05;,18964,EMS: DIZZINESS,2015-12-11 15:31:00,SOUDERTON,MAIN ST & CENTRAL AVE,1
40.1302150,-75.3824469,BERKLEY RD & VARNUM RD; WEST NORRITON; 2015-12-11 @ 15:26:34-Station:STA46;,19403,Fire: FIRE ALARM,2015-12-11 15:31:00,WEST NORRITON,BERKLEY RD & VARNUM RD,1
40.2562130,-75.4637876, ; SCHWENKSVILLE; 2015-12-11 @ 15:30:40;,19473,Traffic: DISABLED VEHICLE -,2015-12-11 15:32:02,SCHWENKSVILLE,,1
40.1357190,-75.1146360,OLD YORK RD & PARKVIEW AVE; ABINGTON; 2015-12-11 @ 15:29:22;,19001,Traffic: VEHICLE ACCIDENT -,2015-12-11 15:32:02,ABINGTON,OLD YORK RD & PARKVIEW AVE,1
40.2228820,-75.3987889, ; SKIPPACK; 2015-12-11 @ 15:30:40;,,Traffic: DISABLED VEHICLE -,2015-12-11 15:36:01,SKIPPACK,,1
40.1147453,-75.2854469,GERMANTOWN PIKE & LAUNFALL RD;  PLYMOUTH; Station 308; 2015-12-11 @ 15:32:09;,19462,EMS: SYNCOPAL EPISODE,2015-12-11 15:37:01,PLYMOUTH,GERMANTOWN PIKE & LAUNFALL RD,1
40.1274502,-75.3618445,MARSHALL ST & N MONTGOMERY AVE; WEST NORRITON; 2015-12-11 @ 15:30:40;,19403,Traffic: DISABLED VEHICLE -,2015-12-11 15:37:02,WEST NORRITON,MARSHALL ST & N MONTGOMERY AVE,1
40.0972222,-75.3761952,SCHUYLKILL EXPY & RR OVERPASS; UPPER MERION; 2015-12-11 @ 15:41:06;,,Traffic: VEHICLE ACCIDENT -,2015-12-11 15:46:01,UPPER MERION,SCHUYLKILL EXPY & RR OVERPASS,1
40.0812601,-75.1370254,RT309 EXPY & S EASTON RD OVERPASS; CHELTENHAM; 2015-12-11 @ 15:45:58;,,Traffic: DISABLED VEHICLE -,2015-12-11 15:47:00,CHELTENHAM,RT309 EXPY & S EASTON RD OVERPASS,1
40.1805757,-75.1333253,HORSHAM RD & DRESHER RD; HORSHAM; 2015-12-11 @ 15:42:03;,19044,Traffic: ROAD OBSTRUCTION -,2015-12-11 15:47:01,HORSHAM,HORSHAM RD & DRESHER RD,1
40.2859406,-75.6382657,UPLAND SQUARE DR & RT100 SB; UPPER POTTSGROVE; 2015-12-11 @ 15:45:01;,,Traffic: VEHICLE ACCIDENT -,2015-12-11 15:47:01,UPPER POTTSGROVE,UPLAND SQUARE DR & RT100 SB,1
40.0812601,-75.1370254,RT309 EXPY & S EASTON RD OVERPASS; CHELTENHAM; 2015-12-11 @ 15:47:46;,,Traffic: DISABLED VEHICLE -,2015-12-11 15:51:01,CHELTENHAM,RT309 EXPY & S EASTON RD OVERPASS,1
40.1357880,-75.5076694,BRIDGE ST & TOWPATH; UPPER PROVIDENCE; 2015-12-11 @ 15:48:02;,19453,Traffic: VEHICLE ACCIDENT -,2015-12-11 15:51:01,UPPER PROVIDENCE,BRIDGE ST & TOWPATH,1
40.1160864,-75.0521552,HIGH RD & VALLEY VIEW DR;  LOWER MORELAND; Station 355; 2015-12-11 @ 15:46:34;,19006,EMS: FALL VICTIM,2015-12-11 15:52:01,LOWER MORELAND,HIGH RD & VALLEY VIEW DR,1
40.3047900,-75.3638279,HARLEYSVILLE PIKE;  SOUDERTON; Station 339; 2015-12-11 @ 15:48:50;,,EMS: VEHICLE ACCIDENT,2015-12-11 15:52:01,SOUDERTON,HARLEYSVILLE PIKE,1
40.3047900,-75.3638279,HARLEYSVILLE PIKE; SOUDERTON; 2015-12-11 @ 15:48:36-Station:STA74;,,Fire: VEHICLE ACCIDENT,2015-12-11 15:52:01,SOUDERTON,HARLEYSVILLE PIKE,1
40.2145813,-75.2892004,SUMNEYTOWN PIKE & DICKERSON RD; UPPER GWYNEDD; 2015-12-11 @ 15:47:10;,19454,Traffic: DISABLED VEHICLE -,2015-12-11 15:52:02,UPPER GWYNEDD,SUMNEYTOWN PIKE & DICKERSON RD,1
40.3156427,-75.3313895,HARLEYSVILLE PIKE & E RELIANCE RD; SOUDERTON; 2015-12-11 @ 15:49:16;,18964,Traffic: VEHICLE ACCIDENT -,2015-12-11 15:52:02,SOUDERTON,HARLEYSVILLE PIKE & E RELIANCE RD,1
40.0296652,-75.3242811,MONTGOMERY AVE & AIRDALE RD;  LOWER MERION; Station 313; 2015-12-11 @ 15:55:15;,19010,EMS: FRACTURE,2015-12-11 15:57:01,LOWER MERION,MONTGOMERY AVE & AIRDALE RD,1
40.1204766,-75.3486024,CHAIN ST & W BLACKBERRY ALY;  NORRISTOWN; Station 308A; 2015-12-11 @ 15:53:38;,19401,EMS: RESPIRATORY EMERGENCY,2015-12-11 15:57:01,NORRISTOWN,CHAIN ST & W BLACKBERRY ALY,1
40.2794736,-75.3877094,MAIN ST & MAPLE AVE;  LOWER SALFORD; Station 344; 2015-12-11 @ 15:59:50;,19438,EMS: ABDOMINAL PAINS,2015-12-11 16:02:01,LOWER SALFORD,MAIN ST & MAPLE AVE,1
40.2054916,-75.1686598,EVERGREEN RD & WILLOWBROOK RD;  HORSHAM; Station 352; 2015-12-11 @ 16:04:10;,19044,EMS: HEMORRHAGING,2015-12-11 16:07:00,HORSHAM,EVERGREEN RD & WILLOWBROOK RD,1
40.1524351,-75.1356188,WELSH RD & CARLSON DR;  UPPER DUBLIN; Station 381; 2015-12-11 @ 16:02:18;,19090,EMS: VEHICLE ACCIDENT,2015-12-11 16:07:00,UPPER DUBLIN,WELSH RD & CARLSON DR,1
40.1305332,-75.4049379,EGYPT RD & WEDGEWOOD WAY; LOWER PROVIDENCE; 2015-12-11 @ 16:03:32;,19403,Traffic: VEHICLE ACCIDENT -,2015-12-11 16:07:01,LOWER PROVIDENCE,EGYPT RD & WEDGEWOOD WAY,1
40.1524351,-75.1356188,WELSH RD & CARLSON DR; UPPER DUBLIN; 2015-12-11 @ 16:05:23;,19090,Traffic: VEHICLE ACCIDENT -,2015-12-11 16:07:01,UPPER DUBLIN,WELSH RD & CARLSON DR,1
40.2624394,-75.2714188,COWPATH RD & PINE ST; HATFIELD TOWNSHIP; 2015-12-11 @ 16:02:11;,19440,Traffic: VEHICLE ACCIDENT -,2015-12-11 16:07:02,HATFIELD TOWNSHIP,COWPATH RD & PINE ST,1
40.1793752,-75.2362381,MCKEAN RD & RT309 OVERPASS; LOWER GWYNEDD; 2015-12-11 @ 16:06:19-Station:STA7;,,Fire: BURN VICTIM,2015-12-11 16:12:00,LOWER GWYNEDD,MCKEAN RD & RT309 OVERPASS,1
40.1793752,-75.2362381,MCKEAN RD & RT309 OVERPASS;  LOWER GWYNEDD; Station 351; 2015-12-11 @ 16:06:11;,,EMS: BURN VICTIM,2015-12-11 16:12:01,LOWER GWYNEDD,MCKEAN RD & RT309 OVERPASS,1
40.0811951,-75.1332615,W CHURCH RD;  CHELTENHAM; Station 358; 2015-12-11 @ 16:10:26;,19095,EMS: VEHICLE ACCIDENT,2015-12-11 16:12:01,CHELTENHAM,W CHURCH RD,1
40.0837614,-75.1422046,W CHURCH RD & WASHINGTON LN; CHELTENHAM; 2015-12-11 @ 16:10:41;,19095,Traffic: VEHICLE ACCIDENT -,2015-12-11 16:12:02,CHELTENHAM,W CHURCH RD & WASHINGTON LN,1
40.0966894,-75.2674978,GERMANTOWN PIKE & FAIRWAY RD; WHITEMARSH; 2015-12-11 @ 16:09:35;,19462,Traffic: VEHICLE ACCIDENT -,2015-12-11 16:12:03,WHITEMARSH,GERMANTOWN PIKE & FAIRWAY RD,1
40.0811951,-75.1332615,W CHURCH RD; CHELTENHAM; 2015-12-11 @ 16:11:49-Station:STA5;,19095,Fire: VEHICLE ACCIDENT,2015-12-11 16:16:00,CHELTENHAM,W CHURCH RD,1
40.2890267,-75.3995896,MAIN ST & OLD SUMNEYTOWN PIKE;  LOWER SALFORD; Station 344; 2015-12-11 @ 16:19:06;,19438,EMS: FALL VICTIM,2015-12-11 16:22:01,LOWER SALFORD,MAIN ST & OLD SUMNEYTOWN PIKE,1
40.1320369,-75.3773048,MAIN ST & LIBERTY AVE; WEST NORRITON; 2015-12-11 @ 16:18:30-Station:STA46;,19403,Fire: FIRE INVESTIGATION,2015-12-11 16:22:01,WEST NORRITON,MAIN ST & LIBERTY AVE,1
40.1546984,-75.1392426,WELSH RD & COMPUTER AVE; UPPER MORELAND; 2015-12-11 @ 16:20:53;,19090,Traffic: VEHICLE ACCIDENT -,2015-12-11 16:22:02,UPPER MORELAND,WELSH RD & COMPUTER AVE,1
40.1546984,-75.1392426,WELSH RD & COMPUTER AVE; UPPER MORELAND; 2015-12-11 @ 16:19:00;,19090,Traffic: VEHICLE ACCIDENT -,2015-12-11 16:26:00,UPPER MORELAND,WELSH RD & COMPUTER AVE,1
40.0246100,-75.3247469,LANCASTER AVE & WATER ST; LOWER MERION; 2015-12-11 @ 16:30:17;,19010,Traffic: DISABLED VEHICLE -,2015-12-11 16:32:02,LOWER MERION,LANCASTER AVE & WATER ST,1
40.2220947,-75.5658544,EVANSBROOKE LN & LIMERICK CENTER RD;  LIMERICK; Station 324A; 2015-12-11 @ 16:35:30;,19464,EMS: MEDICAL ALERT ALARM,2015-12-11 16:37:01,LIMERICK,EVANSBROOKE LN & LIMERICK CENTER RD,1
40.2161897,-75.2387945,ARBOUR GREEN CIR & CLOVER LEAF LN; MONTGOMERY; 2015-12-11 @ 16:32:13-Station:STA18;,18936,Fire: RESCUE - GENERAL,2015-12-11 16:37:01,MONTGOMERY,ARBOUR GREEN CIR & CLOVER LEAF LN,1
40.3394393,-75.4556002,GERYVILLE PIKE & WOODRIDGE DR; MARLBOROUGH; 2015-12-11 @ 16:33:38-Station:STA42;,18054,Fire: WOODS/FIELD FIRE,2015-12-11 16:37:01,MARLBOROUGH,GERYVILLE PIKE & WOODRIDGE DR,1
40.2161897,-75.2387945,ARBOUR GREEN CIR & CLOVER LEAF LN;  MONTGOMERY; Station 345A; 2015-12-11 @ 16:32:27;,18936,EMS: RESCUE - GENERAL,2015-12-11 16:37:02,MONTGOMERY,ARBOUR GREEN CIR & CLOVER LEAF LN,1
40.2515230,-75.3295570,NEWBURY WAY & DEAD END;  TOWAMENCIN; Station 345B; 2015-12-11 @ 16:40:08;,,EMS: MEDICAL ALERT ALARM,2015-12-11 16:42:00,TOWAMENCIN,NEWBURY WAY & DEAD END,1
40.1391298,-75.4341630,SKYLINE DR & BETTIE LN;  LOWER PROVIDENCE; Station 322A; 2015-12-11 @ 16:44:11;,19403,EMS: ALTERED MENTAL STATUS,2015-12-11 16:47:00,LOWER PROVIDENCE,SKYLINE DR & BETTIE LN,1
40.0222096,-75.2768064,OLD GULPH RD & MCCLENAGHAN MILL RD; LOWER MERION; 2015-12-11 @ 16:48:28-Station:STA26;,19096,Fire: FIRE ALARM,2015-12-11 16:52:00,LOWER MERION,OLD GULPH RD & MCCLENAGHAN MILL RD,1
40.2505919,-75.6744381,PRINCE ST; POTTSTOWN; 2015-12-11 @ 16:49:49-Station:STA69;,19464,Fire: WOODS/FIELD FIRE,2015-12-11 16:52:00,POTTSTOWN,PRINCE ST,1
40.1061366,-75.1427146,JENKINTOWN RD & ABINGTON AVE;  ABINGTON; Station 383; 2015-12-11 @ 16:47:33;,19038,EMS: BACK PAINS/INJURY,2015-12-11 16:52:01,ABINGTON,JENKINTOWN RD & ABINGTON AVE,1
40.1803086,-75.4519490,2ND AVE & STINE DR;  COLLEGEVILLE; Station 324; 2015-12-11 @ 16:57:46;,19426,EMS: DIABETIC EMERGENCY,2015-12-11 17:02:00,COLLEGEVILLE,2ND AVE & STINE DR,1
40.0083463,-75.2938805,ARDMORE AVE & W ATHENS AVE;  LOWER MERION; Station 313; 2015-12-11 @ 16:58:15;,19003,EMS: DIABETIC EMERGENCY,2015-12-11 17:02:00,LOWER MERION,ARDMORE AVE & W ATHENS AVE,1
40.1558270,-75.3652085,GERMANTOWN PIKE & BRIDLE PATH RD;  EAST NORRITON; Station 308B; 2015-12-11 @ 17:03:37;,19403,EMS: OVERDOSE,2015-12-11 17:07:01,EAST NORRITON,GERMANTOWN PIKE & BRIDLE PATH RD,1
40.3017291,-75.3189571,CHERRY LN;  SOUDERTON; Station 339; 2015-12-11 @ 17:02:29;,18964,EMS: VEHICLE ACCIDENT,2015-12-11 17:07:01,SOUDERTON,CHERRY LN,1
40.3017291,-75.3189571,CHERRY LN; SOUDERTON; 2015-12-11 @ 17:02:43-Station:STA74;,18964,Fire: VEHICLE ACCIDENT,2015-12-11 17:07:01,SOUDERTON,CHERRY LN,1
40.3127104,-75.3076590,CHERRY LN & S COUNTY LINE RD; SOUDERTON; 2015-12-11 @ 17:02:41;,18964,Traffic: VEHICLE ACCIDENT -,2015-12-11 17:07:02,SOUDERTON,CHERRY LN & S COUNTY LINE RD,1
40.3156427,-75.3313895,HARLEYSVILLE PIKE & E RELIANCE RD; SOUDERTON; 2015-12-11 @ 17:10:47;,18964,Traffic: VEHICLE ACCIDENT -,2015-12-11 17:11:01,SOUDERTON,HARLEYSVILLE PIKE & E RELIANCE RD,1
40.0381300,-75.2586810,HAGYS FORD RD & CHERMAR LN;  LOWER MERION; Station 313; 2015-12-11 @ 17:07:52;,19072,EMS: FALL VICTIM,2015-12-11 17:12:01,LOWER MERION,HAGYS FORD RD & CHERMAR LN,1
40.0698321,-75.3162951,BLUEROUTE  & BALLIGOMINGO RD UNDERPASS; WEST CONSHOHOCKEN; 2015-12-11 @ 17:14:58;,,Traffic: DISABLED VEHICLE -,2015-12-11 17:17:01,WEST CONSHOHOCKEN,BLUEROUTE  & BALLIGOMINGO RD UNDERPASS,1
40.1706264,-75.3642106,TROOPER RD & SPRING HILL RD; WORCESTER; 2015-12-11 @ 17:14:55;,19403,Traffic: ROAD OBSTRUCTION -,2015-12-11 17:17:01,WORCESTER,TROOPER RD & SPRING HILL RD,1
40.0903967,-75.3957327,MALL BLVD & GODDARD BLVD; UPPER MERION; 2015-12-11 @ 17:11:53;,19406,Traffic: VEHICLE ACCIDENT -,2015-12-11 17:17:01,UPPER MERION,MALL BLVD & GODDARD BLVD,1
40.0091328,-75.2840693,LLANFAIR RD & E MONTGOMERY AVE; LOWER MERION; 2015-12-11 @ 17:13:14;,19003,Traffic: DISABLED VEHICLE -,2015-12-11 17:17:02,LOWER MERION,LLANFAIR RD & E MONTGOMERY AVE,1
40.2212266,-75.2887369,LOUISE LN & DEAD END; UPPER GWYNEDD; 2015-12-11 @ 17:16:21-Station:STA80;,,Fire: FIRE ALARM,2015-12-11 17:22:00,UPPER GWYNEDD,LOUISE LN & DEAD END,1
40.1328990,-75.3337140,LOGAN ST & MARKLEY ST;  NORRISTOWN; Station 308A; 2015-12-11 @ 17:19:10;,19401,EMS: CARDIAC EMERGENCY,2015-12-11 17:22:01,NORRISTOWN,LOGAN ST & MARKLEY ST,1
40.0792725,-75.1012585,VALLEY GLEN RD & GLEN WAY;  ABINGTON; Station 382; 2015-12-11 @ 17:17:08;,19027,EMS: FEVER,2015-12-11 17:22:01,ABINGTON,VALLEY GLEN RD & GLEN WAY,1
40.1734648,-75.3579084,N TROOPER RD; WORCESTER; 2015-12-11 @ 17:25:40-Station:STA83;,19403,Fire: FIRE SPECIAL SERVICE,2015-12-11 17:27:01,WORCESTER,N TROOPER RD,1
40.1258460,-75.1957670,PENNSYLVANIA AVE & CAMP HILL RD; SPRINGFIELD; 2015-12-11 @ 17:25:18;,19034,Traffic: DISABLED VEHICLE -,2015-12-11 17:27:02,SPRINGFIELD,PENNSYLVANIA AVE & CAMP HILL RD,1
40.0972222,-75.3761952,SCHUYLKILL EXPY & RT202 OVERPASS; UPPER MERION; 2015-12-11 @ 17:24:30;,,Traffic: DISABLED VEHICLE -,2015-12-11 17:27:02,UPPER MERION,SCHUYLKILL EXPY & RT202 OVERPASS,1
40.1807562,-75.1831301,WELSH RD & N LIMEKILN PIKE; UPPER DUBLIN; 2015-12-11 @ 17:25:24;,19044,Traffic: VEHICLE ACCIDENT -,2015-12-11 17:27:02,UPPER DUBLIN,WELSH RD & N LIMEKILN PIKE,1
40.2290075,-75.3878525,RT422 BYP WB & RT100 UNDERPASS; CHESTER COUNTY; 2015-12-11 @ 17:26:23;,,Traffic: VEHICLE ACCIDENT -,2015-12-11 17:31:01,CHESTER COUNTY,RT422 BYP WB & RT100 UNDERPASS,1
40.1198577,-75.3404954,JACOBY ST & CHURCH ST;  NORRISTOWN; Station 308A; 2015-12-11 @ 17:26:28;,19401,EMS: UNKNOWN MEDICAL EMERGENCY,2015-12-11 17:32:01,NORRISTOWN,JACOBY ST & CHURCH ST,1
40.1792254,-75.1805718,WELSH RD & NORRISTOWN RD; HORSHAM; 2015-12-11 @ 17:25:24;,19044,Traffic: VEHICLE ACCIDENT -,2015-12-11 17:32:02,HORSHAM,WELSH RD & NORRISTOWN RD,1
40.1330371,-75.4084631,SHANNONDELL DR & SHANNONDELL BLVD;  LOWER PROVIDENCE; Station 322A; 2015-12-11 @ 17:31:04;,19403,EMS: FALL VICTIM,2015-12-11 17:36:01,LOWER PROVIDENCE,SHANNONDELL DR & SHANNONDELL BLVD,1
40.0121627,-75.2624047,MONTGOMERY AVE & OLD GULPH RD; LOWER MERION; 2015-12-11 @ 17:32:42;,19072,Traffic: VEHICLE ACCIDENT -,2015-12-11 17:37:01,LOWER MERION,MONTGOMERY AVE & OLD GULPH RD,1
40.2593257,-75.2794631,MOYER RD & WIMBLEDON LN;  HATFIELD TOWNSHIP; Station 345; 2015-12-11 @ 17:38:47;,19440,EMS: CARDIAC EMERGENCY,2015-12-11 17:42:00,HATFIELD TOWNSHIP,MOYER RD & WIMBLEDON LN,1
40.1273963,-75.2585732,PEMBERTON RD & STENTON AVE;  WHITPAIN; Station 385; 2015-12-11 @ 17:37:59;,19462,EMS: SEIZURES,2015-12-11 17:42:01,WHITPAIN,PEMBERTON RD & STENTON AVE,1
40.1166841,-75.3356813,SMITH ST & E OAK ST;  NORRISTOWN; Station 308A; 2015-12-11 @ 17:45:21;,19401,EMS: ASSAULT VICTIM,2015-12-11 17:47:00,NORRISTOWN,SMITH ST & E OAK ST,1
40.1552833,-75.2642296,PENLLYN BLUE BELL PIKE & VILLAGE CIR;  WHITPAIN; Station 385; 2015-12-11 @ 17:43:01;,19422,EMS: HEAD INJURY,2015-12-11 17:47:00,WHITPAIN,PENLLYN BLUE BELL PIKE & VILLAGE CIR,1
40.2284510,-75.4862614,N TOWNSHIP LINE RD & MAYBERRY RD; PERKIOMEN; 2015-12-11 @ 17:44:16;,19473,Traffic: DISABLED VEHICLE -,2015-12-11 17:47:01,PERKIOMEN,N TOWNSHIP LINE RD & MAYBERRY RD,1
40.1135034,-75.1693171,MT CARMEL AVE & NORTH HILLS AVE; ABINGTON; 2015-12-11 @ 17:44:51;,19038,Traffic: VEHICLE ACCIDENT -,2015-12-11 17:47:01,ABINGTON,MT CARMEL AVE & NORTH HILLS AVE,1
40.1710753,-75.0711666,DAVISVILLE RD & E COUNTY LINE RD; UPPER MORELAND; 2015-12-11 @ 17:44:56;,18974,Traffic: VEHICLE ACCIDENT -,2015-12-11 17:47:02,UPPER MORELAND,DAVISVILLE RD & E COUNTY LINE RD,1
40.1807562,-75.1831301,WELSH RD & N LIMEKILN PIKE; HORSHAM; 2015-12-11 @ 17:43:46;,19044,Traffic: VEHICLE ACCIDENT -,2015-12-11 17:47:02,HORSHAM,WELSH RD & N LIMEKILN PIKE,1
40.1640959,-75.1549526,WELSH RD;  HORSHAM; Station 352; 2015-12-11 @ 17:46:06;,,EMS: VEHICLE ACCIDENT,2015-12-11 17:51:00,HORSHAM,WELSH RD,1
40.2290075,-75.3878525,RT422 BYP WB & RAMP RT100 SB TO RT422 WB; CHESTER COUNTY; 2015-12-11 @ 17:46:40;,,Traffic: VEHICLE ACCIDENT -,2015-12-11 17:52:02,CHESTER COUNTY,RT422 BYP WB & RAMP RT100 SB TO RT422 WB,1
40.2246375,-75.4899959,N TOWNSHIP LINE RD & GRATERFORD RD; LIMERICK; 2015-12-11 @ 17:44:16;,19468,Traffic: DISABLED VEHICLE -,2015-12-11 17:57:01,LIMERICK,N TOWNSHIP LINE RD & GRATERFORD RD,1
40.2290075,-75.3878525,RT422 BYP WB;  CHESTER COUNTY; Station 3A84; 2015-12-11 @ 17:57:03;,,EMS: VEHICLE ACCIDENT,2015-12-11 18:01:00,CHESTER COUNTY,RT422 BYP WB,1
40.0730140,-75.1316260,OLD YORK RD & SPRING AVE; CHELTENHAM; 2015-12-11 @ 17:56:02-Station:STA5;,19027,Fire: FIRE ALARM,2015-12-11 18:01:00,CHELTENHAM,OLD YORK RD & SPRING AVE,1
40.2566350,-75.6348134,FRANKLIN ST & WILSON ST;  POTTSTOWN; Station 329; 2015-12-11 @ 17:59:47;,19464,EMS: UNRESPONSIVE SUBJECT,2015-12-11 18:02:01,POTTSTOWN,FRANKLIN ST & WILSON ST,1
40.2407819,-75.2239302,FILLY DR & POLO DR; MONTGOMERY; 2015-12-11 @ 17:58:29-Station:STA18;,19454,Fire: BUILDING FIRE,2015-12-11 18:02:01,MONTGOMERY,FILLY DR & POLO DR,1
40.2006910,-75.2160320,W WELSH RD; LOWER GWYNEDD; 2015-12-11 @ 18:00:39-Station:STA62;,19002,Fire: VEHICLE FIRE,2015-12-11 18:02:01,LOWER GWYNEDD,W WELSH RD,1
40.2290075,-75.3878525,RT422 BYP & RAMP RT422 WB TO RT100 NB;  CHESTER COUNTY; Station 3A84; 2015-12-11 @ 17:57:03;,,EMS: VEHICLE ACCIDENT,2015-12-11 18:02:02,CHESTER COUNTY,RT422 BYP & RAMP RT422 WB TO RT100 NB,1
40.2290075,-75.3878525,RT422 BYP & RAMP RT422 WB TO RT100 NB; CHESTER COUNTY; 2015-12-11 @ 17:46:40;,,Traffic: VEHICLE ACCIDENT -,2015-12-11 18:02:02,CHESTER COUNTY,RT422 BYP & RAMP RT422 WB TO RT100 NB,1
40.2083076,-75.2283594,W WELSH RD & EVANS RD; LOWER GWYNEDD; 2015-12-11 @ 18:00:55;,19002,Traffic: VEHICLE FIRE -,2015-12-11 18:02:02,LOWER GWYNEDD,W WELSH RD & EVANS RD,1
40.2281549,-75.5330076,LEWIS RD & SAND TRAP DR; LIMERICK; 2015-12-11 @ 18:01:27-Station:STA54;,19468,Fire: FIRE ALARM,2015-12-11 18:07:01,LIMERICK,LEWIS RD & SAND TRAP DR,1
40.2980231,-75.4652864,COLONIAL DR & MEADOW LN; LOWER FREDERICK; 2015-12-11 @ 18:05:22;,18074,Traffic: VEHICLE ACCIDENT -,2015-12-11 18:07:02,LOWER FREDERICK,COLONIAL DR & MEADOW LN,1
40.0055473,-75.2367003,MONTGOMERY AVE & KENT RD; LOWER MERION; 2015-12-11 @ 18:02:14;,19004,Traffic: VEHICLE ACCIDENT -,2015-12-11 18:07:02,LOWER MERION,MONTGOMERY AVE & KENT RD,1
40.2547680,-75.6604586,ROBINSON ST & SHOEMAKER RD;  POTTSTOWN; Station 329; 2015-12-11 @ 18:04:59;,19464,EMS: WARRANT SERVICE,2015-12-11 18:11:01,POTTSTOWN,ROBINSON ST & SHOEMAKER RD,1
40.1999657,-75.5246655,BUCKWALTER RD & JOSHUA DR;  LIMERICK; Station 325; 2015-12-11 @ 18:07:27;,19468,EMS: CHOKING,2015-12-11 18:12:01,LIMERICK,BUCKWALTER RD & JOSHUA DR,1
40.2428238,-75.2824703,3RD ST & N BROAD ST;  LANSDALE; Station 345; 2015-12-11 @ 18:10:04;,19446,EMS: HEAD INJURY,2015-12-11 18:12:01,LANSDALE,3RD ST & N BROAD ST,1
40.2449124,-75.6443631,HIGH ST & S FRANKLIN ST;  POTTSTOWN; Station 329; 2015-12-11 @ 18:07:58;,19464,EMS: SYNCOPAL EPISODE,2015-12-11 18:12:01,POTTSTOWN,HIGH ST & S FRANKLIN ST,1
40.2253013,-75.2339509,BETHLEHEM PIKE & STUMP RD; MONTGOMERY; 2015-12-11 @ 18:08:25;,18936,Traffic: ROAD OBSTRUCTION -,2015-12-11 18:12:02,MONTGOMERY,BETHLEHEM PIKE & STUMP RD,1
40.1644656,-75.1353356,BLAIR MILL RD & WITMER RD; UPPER MORELAND; 2015-12-11 @ 18:08:02;,19044,Traffic: VEHICLE ACCIDENT -,2015-12-11 18:12:02,UPPER MORELAND,BLAIR MILL RD & WITMER RD,1
40.1834279,-75.2872063,WINGED FOOT DR & SAWGRASS DR;  WHITPAIN; Station 385; 2015-12-11 @ 18:16:47;,19422,EMS: CARDIAC EMERGENCY,2015-12-11 18:22:01,WHITPAIN,WINGED FOOT DR & SAWGRASS DR,1
40.1585374,-75.2141231,BETHLEHEM PIKE & ARGYLE AVE;  AMBLER; Station 351; 2015-12-11 @ 18:19:43;,19002,EMS: UNCONSCIOUS SUBJECT,2015-12-11 18:22:01,AMBLER,BETHLEHEM PIKE & ARGYLE AVE,1
40.0809133,-75.2026651,EVERGREEN AVE & STENTON AVE;  SPRINGFIELD; Station 311; 2015-12-11 @ 18:16:19;,19038,EMS: UNRESPONSIVE SUBJECT,2015-12-11 18:22:01,SPRINGFIELD,EVERGREEN AVE & STENTON AVE,1
40.2377465,-75.2773028,E MAIN ST & PARK DR; LANSDALE; 2015-12-11 @ 18:26:17;,19446,Traffic: VEHICLE ACCIDENT -,2015-12-11 18:31:01,LANSDALE,E MAIN ST & PARK DR,1
40.2491471,-75.6721646,HIGH ST & RAMP RT100 NB TO W HIGH ST; POTTSTOWN; 2015-12-11 @ 18:28:14-Station:STA69;,19464,Fire: UNKNOWN TYPE FIRE,2015-12-11 18:32:01,POTTSTOWN,HIGH ST & RAMP RT100 NB TO W HIGH ST,1
40.0730140,-75.1316260,OLD YORK RD & SPRING AVE;  CHELTENHAM; Station 358; 2015-12-11 @ 18:35:06;,19027,EMS: CVA/STROKE,2015-12-11 18:37:01,CHELTENHAM,OLD YORK RD & SPRING AVE,1
40.1797224,-75.1877783,LARKSPUR LN & HOOD LN;  UPPER DUBLIN; Station 351; 2015-12-11 @ 18:31:54;,19002,EMS: BACK PAINS/INJURY,2015-12-11 18:37:02,UPPER DUBLIN,LARKSPUR LN & HOOD LN,1
40.1568468,-75.1019942,RAMP I276 TO RT611  & RAMP I276 EB TO RT611;  UPPER MORELAND; Station 4A114; 2015-12-11 @ 18:39:51;,,EMS: VEHICLE ACCIDENT,2015-12-11 18:42:01,UPPER MORELAND,RAMP I276 TO RT611  & RAMP I276 EB TO RT611,1
40.1405049,-75.3108737,GERMANTOWN PIKE & HANNAH AVE;  EAST NORRITON; Station 308; 2015-12-11 @ 18:41:51;,19401,EMS: ALTERED MENTAL STATUS,2015-12-11 18:47:00,EAST NORRITON,GERMANTOWN PIKE & HANNAH AVE,1
40.1537535,-75.1216041,EASTON RD & LAWNTON RD;  UPPER MORELAND; Station 381; 2015-12-11 @ 18:46:19;,19090,EMS: ASSAULT VICTIM,2015-12-11 18:51:01,UPPER MORELAND,EASTON RD & LAWNTON RD,1
40.0945329,-75.1815049,WILLOW GROVE AVE & NEWBOLD LN; CHELTENHAM; 2015-12-11 @ 18:47:18-Station:STA1;,19038,Fire: FIRE ALARM,2015-12-11 18:52:00,CHELTENHAM,WILLOW GROVE AVE & NEWBOLD LN,1
40.1025302,-75.2129155,BETHLEHEM PIKE & E WISSAHICKON AVE; SPRINGFIELD; 2015-12-11 @ 18:47:45;,19031,Traffic: VEHICLE ACCIDENT -,2015-12-11 18:52:02,SPRINGFIELD,BETHLEHEM PIKE & E WISSAHICKON AVE,1
40.2606041,-75.2194891,COUNTY LINE RD & HORIZON DR; MONTGOMERY; 2015-12-11 @ 18:50:56;,18914,Traffic: DISABLED VEHICLE -,2015-12-11 18:56:01,MONTGOMERY,COUNTY LINE RD & HORIZON DR,1
40.0809133,-75.2026651,EVERGREEN AVE & STENTON AVE; SPRINGFIELD; 2015-12-11 @ 19:00:17-Station:STA82;,19038,Fire: FIRE INVESTIGATION,2015-12-11 19:02:00,SPRINGFIELD,EVERGREEN AVE & STENTON AVE,1
40.2511067,-75.6484443,HANOVER ST & E 4TH ST;  POTTSTOWN; Station 329; 2015-12-11 @ 19:00:56;,19464,EMS: UNRESPONSIVE SUBJECT,2015-12-11 19:02:01,POTTSTOWN,HANOVER ST & E 4TH ST,1
40.0972222,-75.3761952,SCHUYLKILL EXPY & N GULPH RD UNDERPASS; UPPER MERION; 2015-12-11 @ 19:09:11;,,Traffic: DISABLED VEHICLE -,2015-12-11 19:12:01,UPPER MERION,SCHUYLKILL EXPY & N GULPH RD UNDERPASS,1
40.0972222,-75.3761952,SCHUYLKILL EXPY & N GULPH RD UNDERPASS; UPPER MERION; 2015-12-11 @ 19:09:12;,,Traffic: DISABLED VEHICLE -,2015-12-11 19:12:01,UPPER MERION,SCHUYLKILL EXPY & N GULPH RD UNDERPASS,1
40.1560377,-75.2745713,STONY BROOK DR & BLUE ROCK LN;  WHITPAIN; Station 385; 2015-12-11 @ 19:14:22;,19422,EMS: ALLERGIC REACTION,2015-12-11 19:17:00,WHITPAIN,STONY BROOK DR & BLUE ROCK LN,1
40.1274502,-75.3618445,MARSHALL ST & N MONTGOMERY AVE;  WEST NORRITON; Station 308B; 2015-12-11 @ 19:17:24;,19403,EMS: FALL VICTIM,2015-12-11 19:22:01,WEST NORRITON,MARSHALL ST & N MONTGOMERY AVE,1
40.1665145,-75.4721505,S COLLEGEVILLE RD;  UPPER PROVIDENCE; Station 324; 2015-12-11 @ 19:18:17;,,EMS: RESPIRATORY EMERGENCY,2015-12-11 19:22:01,UPPER PROVIDENCE,S COLLEGEVILLE RD,1
40.0883549,-75.3821004,DEKALB PIKE & ALLENDALE RD; UPPER MERION; 2015-12-11 @ 19:20:31;,19406,Traffic: VEHICLE ACCIDENT -,2015-12-11 19:22:02,UPPER MERION,DEKALB PIKE & ALLENDALE RD,1
40.1320477,-75.3578112,GLEN LN & BEECH ST;  WEST NORRITON; Station 308B; 2015-12-11 @ 19:23:42;,19403,EMS: CARDIAC EMERGENCY,2015-12-11 19:27:01,WEST NORRITON,GLEN LN & BEECH ST,1
40.0958590,-75.4172190,N GULPH RD & 1ST AVE; UPPER MERION; 2015-12-11 @ 19:22:53;,19406,Traffic: VEHICLE ACCIDENT -,2015-12-11 19:27:02,UPPER MERION,N GULPH RD & 1ST AVE,1
40.0946197,-75.3628559,DEKALB PIKE & S HENDERSON RD;  UPPER MERION; Station 317; 2015-12-11 @ 19:27:30;,19406,EMS: VEHICLE ACCIDENT,2015-12-11 19:32:01,UPPER MERION,DEKALB PIKE & S HENDERSON RD,1
40.0946197,-75.3628559,DEKALB PIKE & S HENDERSON RD; UPPER MERION; 2015-12-11 @ 19:29:15;,19406,Traffic: VEHICLE ACCIDENT -,2015-12-11 19:32:01,UPPER MERION,DEKALB PIKE & S HENDERSON RD,1
40.3249920,-75.3281748,N MAIN ST & RR CROSSING; TELFORD; 2015-12-11 @ 19:30:34;,,Traffic: VEHICLE ACCIDENT -,2015-12-11 19:32:01,TELFORD,N MAIN ST & RR CROSSING,1
40.1503559,-75.3412600,W GERMANTOWN PIKE;  EAST NORRITON; Station 308; 2015-12-11 @ 19:35:09;,,EMS: VEHICLE ACCIDENT,2015-12-11 19:37:00,EAST NORRITON,W GERMANTOWN PIKE,1
40.2670430,-75.6488870,STATE ST; POTTSTOWN; 2015-12-11 @ 19:35:56-Station:STA69;,19464,Fire: VEHICLE ACCIDENT,2015-12-11 19:37:00,POTTSTOWN,STATE ST,1
40.1477128,-75.1319704,OKLAHOMA RD & SMITH AVE;  ABINGTON; Station 381; 2015-12-11 @ 19:33:26;,19090,EMS: SEIZURES,2015-12-11 19:37:01,ABINGTON,OKLAHOMA RD & SMITH AVE,1
40.2670430,-75.6488870,STATE ST;  POTTSTOWN; Station 329; 2015-12-11 @ 19:33:57;,19464,EMS: VEHICLE ACCIDENT,2015-12-11 19:37:01,POTTSTOWN,STATE ST,1
40.2568998,-75.6517214,STATE ST & W 8TH ST; POTTSTOWN; 2015-12-11 @ 19:33:34;,19464,Traffic: VEHICLE ACCIDENT -,2015-12-11 19:37:02,POTTSTOWN,STATE ST & W 8TH ST,1
40.1452231,-75.3186843,W GERMANTOWN PIKE & SWEDE RD; EAST NORRITON; 2015-12-11 @ 19:35:37;,19401,Traffic: VEHICLE ACCIDENT -,2015-12-11 19:37:02,EAST NORRITON,W GERMANTOWN PIKE & SWEDE RD,1
40.2582531,-75.2482301,BETHLEHEM PIKE & TAYLOR RD;  MONTGOMERY; Station 345; 2015-12-11 @ 19:38:32;,19446,EMS: CARDIAC EMERGENCY,2015-12-11 19:42:00,MONTGOMERY,BETHLEHEM PIKE & TAYLOR RD,1
40.0524277,-75.1207935,CHELTENHAM AVE & WALNUT PARK DR;  CHELTENHAM; Station 358; 2015-12-11 @ 19:44:27;,19012,EMS: SEIZURES,2015-12-11 19:47:01,CHELTENHAM,CHELTENHAM AVE & WALNUT PARK DR,1
40.2355078,-75.5905277,LINFIELD RD & S SANATOGA RD; LOWER POTTSGROVE; 2015-12-11 @ 19:42:41;,19464,Traffic: VEHICLE ACCIDENT -,2015-12-11 19:47:02,LOWER POTTSGROVE,LINFIELD RD & S SANATOGA RD,1
40.2355078,-75.5905277,LINFIELD RD & S SANATOGA RD; LOWER POTTSGROVE; 2015-12-11 @ 19:46:24-Station:STA58;,19464,Fire: VEHICLE ACCIDENT,2015-12-11 19:51:01,LOWER POTTSGROVE,LINFIELD RD & S SANATOGA RD,1
40.0646330,-75.1229148,SURREY RD & LAFAYETTE AVE;  CHELTENHAM; Station 358; 2015-12-11 @ 19:50:11;,19027,EMS: RESPIRATORY EMERGENCY,2015-12-11 19:52:00,CHELTENHAM,SURREY RD & LAFAYETTE AVE,1
40.0893283,-75.1317412,WASHINGTON LN & TOWNSHIP LINE RD;  ABINGTON; Station 382; 2015-12-11 @ 19:48:13;,19095,EMS: CARDIAC EMERGENCY,2015-12-11 19:52:01,ABINGTON,WASHINGTON LN & TOWNSHIP LINE RD,1
40.2216258,-75.3875797,SKIPPACK PIKE & EVANSBURG RD;  SKIPPACK; Station 336; 2015-12-11 @ 19:49:39;,19438,EMS: FRACTURE,2015-12-11 19:52:01,SKIPPACK,SKIPPACK PIKE & EVANSBURG RD,1
40.3305544,-75.6238893,MONTGOMERY AVE & E 6TH ST;  DOUGLASS; Station 332; 2015-12-11 @ 19:47:46;,19512,EMS: UNKNOWN MEDICAL EMERGENCY,2015-12-11 19:52:01,DOUGLASS,MONTGOMERY AVE & E 6TH ST,1
40.1816167,-75.2312638,PENLLYN PIKE & FOXFIELD RD;  LOWER GWYNEDD; Station 351; 2015-12-11 @ 19:50:59;,19002,EMS: FEVER,2015-12-11 19:56:00,LOWER GWYNEDD,PENLLYN PIKE & FOXFIELD RD,1
40.2013457,-75.5384201,LEWIS RD & COUNTRY CLUB RD;  LIMERICK; Station 325; 2015-12-11 @ 19:53:48;,19468,EMS: SEIZURES,2015-12-11 19:57:01,LIMERICK,LEWIS RD & COUNTRY CLUB RD,1
40.2355078,-75.5905277,LINFIELD RD & S SANATOGA RD;  LOWER POTTSGROVE; Station 329; 2015-12-11 @ 19:47:02;,19464,EMS: VEHICLE ACCIDENT,2015-12-11 20:01:01,LOWER POTTSGROVE,LINFIELD RD & S SANATOGA RD,1
40.1370566,-75.1213913,EASTON RD & OLD WELSH RD; ABINGTON; 2015-12-11 @ 19:57:14;,19090,Traffic: VEHICLE ACCIDENT -,2015-12-11 20:01:02,ABINGTON,EASTON RD & OLD WELSH RD,1
40.0360047,-75.3491971,LANCASTER AVE & N SPRING MILL RD; DELAWARE COUNTY; 2015-12-11 @ 19:56:34-Station:STA23;,19085,Fire: FIRE ALARM,2015-12-11 20:02:01,DELAWARE COUNTY,LANCASTER AVE & N SPRING MILL RD,1
40.1392582,-75.1641167,N LIMEKILN PIKE & SUSQUEHANNA RD; UPPER DUBLIN; 2015-12-11 @ 20:04:17;,19025,Traffic: DISABLED VEHICLE -,2015-12-11 20:07:02,UPPER DUBLIN,N LIMEKILN PIKE & SUSQUEHANNA RD,1
40.1652088,-75.2071308,BUTLER PIKE & SUSQUEHANNA RD; UPPER DUBLIN; 2015-12-11 @ 20:11:02;,19002,Traffic: VEHICLE ACCIDENT -,2015-12-11 20:16:02,UPPER DUBLIN,BUTLER PIKE & SUSQUEHANNA RD,1
40.0056436,-75.2219357,BELMONT AVE & ST ASAPHS RD; LOWER MERION; 2015-12-11 @ 20:18:00-Station:STA28;,19004,Fire: CARBON MONOXIDE DETECTOR,2015-12-11 20:22:00,LOWER MERION,BELMONT AVE & ST ASAPHS RD,1
40.2163198,-75.4450463,PERKIOMEN CREEK RD & MOUNTAINTOP DR; SKIPPACK; 2015-12-11 @ 20:29:03;,19426,Traffic: VEHICLE ACCIDENT -,2015-12-11 20:31:01,SKIPPACK,PERKIOMEN CREEK RD & MOUNTAINTOP DR,1
40.2239516,-75.3470852,MORRIS RD & HENNING WAY;  TOWAMENCIN; Station 345B; 2015-12-11 @ 20:27:56;,19446,EMS: VEHICLE ACCIDENT,2015-12-11 20:32:01,TOWAMENCIN,MORRIS RD & HENNING WAY,1
40.2239516,-75.3470852,MORRIS RD & HENNING WAY; TOWAMENCIN; 2015-12-11 @ 20:28:55;,19446,Traffic: VEHICLE ACCIDENT -,2015-12-11 20:32:02,TOWAMENCIN,MORRIS RD & HENNING WAY,1
40.2239516,-75.3470852,MORRIS RD & HENNING WAY; TOWAMENCIN; 2015-12-11 @ 20:33:56-Station:STA76;,19446,Fire: S/B AT HELICOPTER LANDING,2015-12-11 20:36:00,TOWAMENCIN,MORRIS RD & HENNING WAY,1
40.2515230,-75.3295570,CARPENTER LN & DEAD END;  TOWAMENCIN; Station 345B; 2015-12-11 @ 20:35:37;,,EMS: HEMORRHAGING,2015-12-11 20:37:00,TOWAMENCIN,CARPENTER LN & DEAD END,1
40.1330371,-75.4084631,SHANNONDELL DR & SHANNONDELL BLVD; LOWER PROVIDENCE; 2015-12-11 @ 20:37:54-Station:STA53;,19403,Fire: FIRE ALARM,2015-12-11 20:42:00,LOWER PROVIDENCE,SHANNONDELL DR & SHANNONDELL BLVD,1
40.1258785,-75.0861109,WELSH RD & WALLER DR; LOWER MORELAND; 2015-12-11 @ 20:54:34;,19006,Traffic: ROAD OBSTRUCTION -,2015-12-11 20:57:02,LOWER MORELAND,WELSH RD & WALLER DR,1
39.9922519,-75.2544548,WYNNEWOOD RD & S LATCHS LN;  LOWER MERION; Station 313; 2015-12-11 @ 21:00:33;,19096,EMS: ABDOMINAL PAINS,2015-12-11 21:02:01,LOWER MERION,WYNNEWOOD RD & S LATCHS LN,1
40.1558270,-75.3652085,GERMANTOWN PIKE & BRIDLE PATH RD;  EAST NORRITON; Station 308B; 2015-12-11 @ 20:58:02;,19403,EMS: CARDIAC EMERGENCY,2015-12-11 21:02:01,EAST NORRITON,GERMANTOWN PIKE & BRIDLE PATH RD,1
40.1695156,-75.0686708,COUNTY LINE RD & SHOEMAKER RD; UPPER MORELAND; 2015-12-11 @ 21:02:20;,19006,Traffic: VEHICLE ACCIDENT -,2015-12-11 21:06:01,UPPER MORELAND,COUNTY LINE RD & SHOEMAKER RD,1
40.1580254,-75.2992999,DEKALB PIKE & JOLLY RD; WHITPAIN; 2015-12-11 @ 21:01:43;,19422,Traffic: VEHICLE ACCIDENT -,2015-12-11 21:06:01,WHITPAIN,DEKALB PIKE & JOLLY RD,1
40.1208914,-75.0688687,WELSH RD & CARSON TER; LOWER MORELAND; 2015-12-11 @ 21:10:11;,19006,Traffic: DISABLED VEHICLE -,2015-12-11 21:12:01,LOWER MORELAND,WELSH RD & CARSON TER,1
40.2212266,-75.2887369, ; UPPER GWYNEDD; 2015-12-11 @ 21:11:18;,,Traffic: VEHICLE ACCIDENT -,2015-12-11 21:17:01,UPPER GWYNEDD,,1
40.2365815,-75.3007353,ALLENTOWN RD & BREEZEWOOD LN; UPPER GWYNEDD; 2015-12-11 @ 21:13:49;,19446,Traffic: VEHICLE ACCIDENT -,2015-12-11 21:17:01,UPPER GWYNEDD,ALLENTOWN RD & BREEZEWOOD LN,1
40.1617309,-75.2955376,DEKALB PIKE & CHERRY LN; WHITPAIN; 2015-12-11 @ 21:01:43;,19422,Traffic: VEHICLE ACCIDENT -,2015-12-11 21:17:02,WHITPAIN,DEKALB PIKE & CHERRY LN,1
40.2290075,-75.3878525,; ; 2015-12-11 @ 21:21:14-Station:STA67;,,Fire: VEHICLE ACCIDENT,2015-12-11 21:26:01,,,1
40.3400721,-75.5917092,RAMP RT73 TO RT100  & RT100 SB; DOUGLASS; 2015-12-11 @ 21:21:14-Station:STA67;,,Fire: VEHICLE ACCIDENT,2015-12-11 21:27:01,DOUGLASS,RAMP RT73 TO RT100  & RT100 SB,1
40.3400721,-75.5917092,RAMP RT73 TO RT100  & RT100 SB; DOUGLASS; 2015-12-11 @ 21:11:18;,,Traffic: VEHICLE ACCIDENT -,2015-12-11 21:27:01,DOUGLASS,RAMP RT73 TO RT100  & RT100 SB,1
40.2195658,-75.2203898,DRAKE LN & THAMES DR; MONTGOMERY; 2015-12-11 @ 21:34:50-Station:STA18;,19454,Fire: FIRE ALARM,2015-12-11 21:37:01,MONTGOMERY,DRAKE LN & THAMES DR,1
40.1515127,-75.1927847,TRESSLER DR & SHAW DR;  UPPER DUBLIN; Station 351; 2015-12-11 @ 21:46:07;,19034,EMS: SUBJECT IN PAIN,2015-12-11 21:51:00,UPPER DUBLIN,TRESSLER DR & SHAW DR,1
40.0972222,-75.3761952,HILLSIDE RD & DEAD END;  UPPER MERION; Station 317; 2015-12-11 @ 21:49:00;,,EMS: MEDICAL ALERT ALARM,2015-12-11 21:52:01,UPPER MERION,HILLSIDE RD & DEAD END,1
40.0746954,-75.3054689,FAYETTE ST & W 2ND AVE; CONSHOHOCKEN; 2015-12-11 @ 21:53:45-Station:STA36;,19428,Fire: FIRE ALARM,2015-12-11 21:57:01,CONSHOHOCKEN,FAYETTE ST & W 2ND AVE,1
40.0872847,-75.2930869,BUTLER PIKE & E NORTH LN; WHITEMARSH; 2015-12-11 @ 22:00:52;,19428,Traffic: DISABLED VEHICLE -,2015-12-11 22:02:01,WHITEMARSH,BUTLER PIKE & E NORTH LN,1
40.0059715,-75.2435911,RAMP MATSONSFORD RD TO I476  & MATSONS FORD RD; LOWER MERION; 2015-12-11 @ 22:08:44;,19004,Traffic: DISABLED VEHICLE -,2015-12-11 22:12:01,LOWER MERION,RAMP MATSONSFORD RD TO I476  & MATSONS FORD RD,1
40.2290075,-75.3878525,COUNTY LINE RD & RR CROSSING;  BUCKS COUNTY; Station EMS; 2015-12-11 @ 22:19:44;,,EMS: RESPIRATORY EMERGENCY,2015-12-11 22:22:01,BUCKS COUNTY,COUNTY LINE RD & RR CROSSING,1
40.1641285,-75.4764840,S COLLEGEVILLE RD & TOWN CENTER DR; UPPER PROVIDENCE; 2015-12-11 @ 22:18:49;,19426,Traffic: DISABLED VEHICLE -,2015-12-11 22:22:01,UPPER PROVIDENCE,S COLLEGEVILLE RD & TOWN CENTER DR,1
40.1165291,-75.1687182,S LIMEKILN PIKE & CHELSEA AVE; UPPER DUBLIN; 2015-12-11 @ 22:20:06;,19038,Traffic: VEHICLE ACCIDENT -,2015-12-11 22:22:01,UPPER DUBLIN,S LIMEKILN PIKE & CHELSEA AVE,1
40.1256093,-75.1654547,S LIMEKILN PIKE;  UPPER DUBLIN; Station 383; 2015-12-11 @ 22:28:29;,,EMS: VEHICLE ACCIDENT,2015-12-11 22:31:00,UPPER DUBLIN,S LIMEKILN PIKE,1
40.1165291,-75.1687182,S LIMEKILN PIKE & CHELSEA AVE; UPPER DUBLIN; 2015-12-11 @ 22:29:07;,19038,Traffic: VEHICLE ACCIDENT -,2015-12-11 22:31:00,UPPER DUBLIN,S LIMEKILN PIKE & CHELSEA AVE,1
40.0929049,-75.2617156,GERMANTOWN PIKE & JOSHUA RD; WHITEMARSH; 2015-12-11 @ 22:30:08;,19444,Traffic: VEHICLE ACCIDENT -,2015-12-11 22:32:00,WHITEMARSH,GERMANTOWN PIKE & JOSHUA RD,1
40.2543376,-75.5730758,OAKDALE DR & WOODMERE RD; LOWER POTTSGROVE; 2015-12-11 @ 22:50:53-Station:STA58;,19464,Fire: VEHICLE ACCIDENT,2015-12-11 22:52:00,LOWER POTTSGROVE,OAKDALE DR & WOODMERE RD,1
40.1429112,-75.2611439,ROMSEY DR & DUNDEE DR;  WHITPAIN; Station 385; 2015-12-11 @ 22:50:08;,19422,EMS: RESPIRATORY EMERGENCY,2015-12-11 22:52:01,WHITPAIN,ROMSEY DR & DUNDEE DR,1
40.1033767,-75.4124499,VALLEY FORGE CIR & OLD VALLEY FORGE RD;  UPPER MERION; Station 317; 2015-12-11 @ 22:48:28;,19406,EMS: RESPIRATORY EMERGENCY,2015-12-11 22:52:01,UPPER MERION,VALLEY FORGE CIR & OLD VALLEY FORGE RD,1
40.2543376,-75.5730758,OAKDALE DR & WOODMERE RD;  LOWER POTTSGROVE; Station 329; 2015-12-11 @ 22:51:04;,19464,EMS: VEHICLE ACCIDENT,2015-12-11 22:56:01,LOWER POTTSGROVE,OAKDALE DR & WOODMERE RD,1
40.2543376,-75.5730758,OAKDALE DR & WOODMERE RD; LOWER POTTSGROVE; 2015-12-11 @ 22:51:25;,19464,Traffic: VEHICLE ACCIDENT -,2015-12-11 22:56:01,LOWER POTTSGROVE,OAKDALE DR & WOODMERE RD,1
40.1082672,-75.3062326,RAMP I476 NB TO CHEMICAL RD & BLUEROUTE NB; PLYMOUTH; 2015-12-11 @ 22:52:50;,,Traffic: VEHICLE ACCIDENT -,2015-12-11 22:56:01,PLYMOUTH,RAMP I476 NB TO CHEMICAL RD & BLUEROUTE NB,1
40.1074003,-75.1132060,THE FAIRWAY  & RYDAL RD; ABINGTON; 2015-12-11 @ 22:54:16-Station:STA100;,19046,Fire: UNKNOWN TYPE FIRE,2015-12-11 22:57:00,ABINGTON,THE FAIRWAY  & RYDAL RD,1
40.1147453,-75.2854469,W GERMANTOWN PIKE & LAUNFALL RD; PLYMOUTH; 2015-12-11 @ 22:52:59;,19462,Traffic: VEHICLE ACCIDENT -,2015-12-11 22:57:01,PLYMOUTH,W GERMANTOWN PIKE & LAUNFALL RD,1
40.2539610,-75.6511878,REYNOLDS AVE & JOHNSON ST;  POTTSTOWN; Station 329; 2015-12-11 @ 23:09:33;,19464,EMS: UNKNOWN MEDICAL EMERGENCY,2015-12-11 23:11:01,POTTSTOWN,REYNOLDS AVE & JOHNSON ST,1
40.1038678,-75.1297875,WANAMAKER RD & BAEDER RD;  ABINGTON; Station 382; 2015-12-11 @ 23:12:39;,19046,EMS: CARDIAC EMERGENCY,2015-12-11 23:17:01,ABINGTON,WANAMAKER RD & BAEDER RD,1
40.2465386,-75.6488196,KING ST & PENN ST;  POTTSTOWN; Station 329; 2015-12-11 @ 23:15:17;,19464,EMS: UNKNOWN MEDICAL EMERGENCY,2015-12-11 23:17:01,POTTSTOWN,KING ST & PENN ST,1
40.1001509,-75.1517694,GLENSIDE AVE & NEW ST;  CHELTENHAM; Station 358A; 2015-12-11 @ 23:40:37;,19038,EMS: HEAD INJURY,2015-12-11 23:42:01,CHELTENHAM,GLENSIDE AVE & NEW ST,1
40.3379554,-75.5691323,HOFFMANSVILLE RD & KULPS RD;  NEW HANOVER; Station 332; 2015-12-11 @ 23:39:18;,18074,EMS: CARDIAC EMERGENCY,2015-12-11 23:42:02,NEW HANOVER,HOFFMANSVILLE RD & KULPS RD,1
40.1298670,-75.3495930,STERIGERE ST & BUTTONWOOD ST; NORRISTOWN; 2015-12-11 @ 23:46:56;,19401,Traffic: VEHICLE ACCIDENT -,2015-12-11 23:52:01,NORRISTOWN,STERIGERE ST & BUTTONWOOD ST,1
40.2353731,-75.2247509,STUMP RD & HORSHAM RD;  MONTGOMERY; Station 345A; 2015-12-11 @ 23:58:50;,19454,EMS: HEAD INJURY,2015-12-12 00:02:00,MONTGOMERY,STUMP RD & HORSHAM RD,1
40.0117673,-75.2946732,MONTGOMERY AVE & WOODSIDE RD;  LOWER MERION; Station 313; 2015-12-12 @ 00:15:12;,19041,EMS: CARDIAC EMERGENCY,2015-12-12 00:17:00,LOWER MERION,MONTGOMERY AVE & WOODSIDE RD,1
40.1241473,-75.0609301,RED LION RD & MURRAY AVE;  LOWER MORELAND; Station 355; 2015-12-12 @ 00:25:14;,19006,EMS: EMS SPECIAL SERVICE,2015-12-12 00:27:01,LOWER MORELAND,RED LION RD & MURRAY AVE,1
40.2513703,-75.4657098,PERKIOMEN AVE & 3RD ST; SCHWENKSVILLE; 2015-12-12 @ 00:29:36-Station:STA73;,19473,Fire: FIRE ALARM,2015-12-12 00:32:02,SCHWENKSVILLE,PERKIOMEN AVE & 3RD ST,1
40.2604599,-75.4553758,PARK AVE & PENNYPACKER RD; PERKIOMEN; 2015-12-12 @ 00:36:21;,19473,Traffic: VEHICLE ACCIDENT -,2015-12-12 00:42:02,PERKIOMEN,PARK AVE & PENNYPACKER RD,1
40.0381300,-75.2586810,HAGYS FORD RD & CHERMAR LN;  LOWER MERION; Station 313; 2015-12-12 @ 00:46:59;,19072,EMS: FALL VICTIM,2015-12-12 00:52:01,LOWER MERION,HAGYS FORD RD & CHERMAR LN,1
40.1147605,-75.3378565,MOORE ST & ARCH ST; NORRISTOWN; 2015-12-12 @ 00:51:53-Station:STA27;,19401,Fire: GAS-ODOR/LEAK,2015-12-12 00:57:01,NORRISTOWN,MOORE ST & ARCH ST,1
40.2058374,-75.2656317,GWYNEDD MANOR RD & SUMNEYTOWN PIKE; UPPER GWYNEDD; 2015-12-12 @ 00:59:34;,19454,Traffic: HAZARDOUS ROAD CONDITIONS -,2015-12-12 01:02:01,UPPER GWYNEDD,GWYNEDD MANOR RD & SUMNEYTOWN PIKE,1
40.1162914,-75.3316297,THOMAS ST & THOMAS CIR;  NORRISTOWN; Station 308A; 2015-12-12 @ 01:04:03;,19401,EMS: MATERNITY,2015-12-12 01:07:01,NORRISTOWN,THOMAS ST & THOMAS CIR,1
40.0200189,-75.3340404,ROBERTS RD & CASTLEFINN LN;  DELAWARE COUNTY; Station EMS; 2015-12-12 @ 01:09:57;,19010,EMS: CARDIAC EMERGENCY,2015-12-12 01:12:00,DELAWARE COUNTY,ROBERTS RD & CASTLEFINN LN,1
40.2948168,-75.5379720,BIG RD & COLONIAL RD;  UPPER FREDERICK; Station 331; 2015-12-12 @ 01:06:34;,18074,EMS: ABDOMINAL PAINS,2015-12-12 01:12:01,UPPER FREDERICK,BIG RD & COLONIAL RD,1
40.0755363,-75.3046354,3RD AVE & FAYETTE ST;  CONSHOHOCKEN; Station 313A; 2015-12-12 @ 01:33:27;,19428,EMS: ABDOMINAL PAINS,2015-12-12 01:37:00,CONSHOHOCKEN,3RD AVE & FAYETTE ST,1
40.2464683,-75.3012762,ERIE DR & MT VERNON ST;  TOWAMENCIN; Station 345B; 2015-12-12 @ 01:46:20;,19446,EMS: CARDIAC EMERGENCY,2015-12-12 01:52:01,TOWAMENCIN,ERIE DR & MT VERNON ST,1
40.1633929,-75.1110720,S YORK RD & S WARMINSTER RD; UPPER MORELAND; 2015-12-12 @ 02:02:40;,19040,Traffic: VEHICLE ACCIDENT -,2015-12-12 02:07:01,UPPER MORELAND,S YORK RD & S WARMINSTER RD,1
40.1874778,-75.1779653,LANGDON AVE & GILMAN RD;  HORSHAM; Station 352; 2015-12-12 @ 02:07:57;,19044,EMS: CARDIAC EMERGENCY,2015-12-12 02:12:00,HORSHAM,LANGDON AVE & GILMAN RD,1
40.2567791,-75.3135068,TANNER WAY & GRIST MILL DR;  TOWAMENCIN; Station 345B; 2015-12-12 @ 02:34:58;,19446,EMS: DIABETIC EMERGENCY,2015-12-12 02:37:01,TOWAMENCIN,TANNER WAY & GRIST MILL DR,1
40.2520891,-75.6458069,SPRUCE ST & JEFFERSON AVE;  POTTSTOWN; Station 329; 2015-12-12 @ 02:34:23;,19464,EMS: UNCONSCIOUS SUBJECT,2015-12-12 02:37:01,POTTSTOWN,SPRUCE ST & JEFFERSON AVE,1
40.2387237,-75.5785160,EVERGREEN RD & W LIGHTCAP RD;  LOWER POTTSGROVE; Station 329; 2015-12-12 @ 02:47:35;,19464,EMS: ALTERED MENTAL STATUS,2015-12-12 02:52:00,LOWER POTTSGROVE,EVERGREEN RD & W LIGHTCAP RD,1
40.1933967,-75.1580487,ENTERPRISE RD & PRIVET RD; HORSHAM; 2015-12-12 @ 03:05:52-Station:STA15;,19044,Fire: FIRE ALARM,2015-12-12 03:07:00,HORSHAM,ENTERPRISE RD & PRIVET RD,1
40.0896039,-75.1483371,BARKER RD & GREENWOOD AVE;  CHELTENHAM; Station 358A; 2015-12-12 @ 03:03:57;,19095,EMS: RESCUE - GENERAL,2015-12-12 03:07:01,CHELTENHAM,BARKER RD & GREENWOOD AVE,1
40.0896039,-75.1483371,BARKER RD & GREENWOOD AVE; CHELTENHAM; 2015-12-12 @ 03:03:46-Station:STA1;,19095,Fire: RESCUE - GENERAL,2015-12-12 03:07:01,CHELTENHAM,BARKER RD & GREENWOOD AVE,1
40.2514920,-75.6033497, ; LOWER POTTSGROVE; 2015-12-12 @ 03:15:48;,,Traffic: VEHICLE FIRE -,2015-12-12 03:21:02,LOWER POTTSGROVE,,1
40.2522137,-75.2522111,DOYLESTOWN PIKE & COWPATH RD; MONTGOMERY; 2015-12-12 @ 03:15:48;,,Traffic: VEHICLE FIRE -,2015-12-12 03:22:01,MONTGOMERY,DOYLESTOWN PIKE & COWPATH RD,1
40.1741251,-75.1250949,BLAIR MILL RD;  HORSHAM; Station 352; 2015-12-12 @ 03:22:44;,,EMS: VEHICLE ACCIDENT,2015-12-12 03:27:01,HORSHAM,BLAIR MILL RD,1
40.2522137,-75.2522111,DOYLESTOWN PIKE & COWPATH RD; MONTGOMERY; 2015-12-12 @ 03:21:04-Station:STA18;,,Fire: VEHICLE FIRE,2015-12-12 03:27:01,MONTGOMERY,DOYLESTOWN PIKE & COWPATH RD,1
40.2581659,-75.6406249,LOGAN ST & GAY ST;  POTTSTOWN; Station 329; 2015-12-12 @ 03:22:12;,19464,EMS: CARDIAC EMERGENCY,2015-12-12 03:27:02,POTTSTOWN,LOGAN ST & GAY ST,1
40.1760820,-75.1231279,BLAIR MILL RD & HORSHAM RD; HORSHAM; 2015-12-12 @ 03:22:23;,19044,Traffic: VEHICLE ACCIDENT -,2015-12-12 03:27:02,HORSHAM,BLAIR MILL RD & HORSHAM RD,1
40.1364894,-75.3049702,E GERMANTOWN PIKE & ARCH RD; PLYMOUTH; 2015-12-12 @ 03:36:23;,19401,Traffic: DISABLED VEHICLE -,2015-12-12 03:42:01,PLYMOUTH,E GERMANTOWN PIKE & ARCH RD,1
40.1685378,-75.4982005,BLACK ROCK RD & S TRAPPE RD; UPPER PROVIDENCE; 2015-12-12 @ 03:50:29-Station:STA98;,19468,Fire: FIRE ALARM,2015-12-12 03:56:00,UPPER PROVIDENCE,BLACK ROCK RD & S TRAPPE RD,1
40.2467017,-75.2968910,COLUMBIA AVE & S VALLEY FORGE RD;  LANSDALE; Station 345B; 2015-12-12 @ 03:56:28;,19446,EMS: CARDIAC EMERGENCY,2015-12-12 04:02:01,LANSDALE,COLUMBIA AVE & S VALLEY FORGE RD,1
40.1082672,-75.3062326,BLUEROUTE  & RAMP I476 NB TO GERMANTOWN PIKE WB; PLYMOUTH; 2015-12-12 @ 04:14:03;,,Traffic: DISABLED VEHICLE -,2015-12-12 04:17:02,PLYMOUTH,BLUEROUTE  & RAMP I476 NB TO GERMANTOWN PIKE WB,1
40.1085232,-75.3200299,LUCETTA ST & HAWS ALY;  PLYMOUTH; Station 308A; 2015-12-12 @ 04:32:36;,19462,EMS: CARDIAC EMERGENCY,2015-12-12 04:37:00,PLYMOUTH,LUCETTA ST & HAWS ALY,1
40.2456734,-75.2796667,BROAD ST & E 6TH ST;  LANSDALE; Station 345; 2015-12-12 @ 04:32:03;,19446,EMS: HEAD INJURY,2015-12-12 04:37:01,LANSDALE,BROAD ST & E 6TH ST,1
